{
  "PR": [
    {
      "SSOK": {
        "airport_name": "14 Bis",
        "city": "LONDRINA",
        "latitude": -22.78527777777778,
        "longitude": -50.81555555555556
      }
    },
    {
      "SSAF": {
        "airport_name": "Aeroclube de Foz do Iguaçu",
        "city": "SANTA TEREZINHA DE ITAIPU",
        "latitude": -24.630277777777778,
        "longitude": -53.529444444444444
      }
    },
    {
      "SJGS": {
        "airport_name": "Aerosigma Helicentro",
        "city": "BOCAIÚVA DO SUL",
        "latitude": -24.743055555555557,
        "longitude": -48.85638888888889
      }
    },
    {
      "SI72": {
        "airport_name": "Aerosport Maringá",
        "city": "IGUARAÇU",
        "latitude": -22.81138888888889,
        "longitude": -50.19861111111111
      }
    },
    {
      "SBCT": {
        "airport_name": "Afonso Pena",
        "city": "CURITIBA",
        "latitude": -24.468333333333334,
        "longitude": -48.82388888888889,
        "airspace_class": "CLASS A"
      }
    },
    {
      "SSEL": {
        "airport_name": "ANAMI",
        "city": "SÃO JOSÉ DOS PINHAIS",
        "latitude": -24.407222222222224,
        "longitude": -48.81555555555556
      }
    },
    {
      "SSOG": {
        "airport_name": "Arapongas",
        "city": "ARAPONGAS",
        "latitude": -22.647222222222222,
        "longitude": -50.50833333333333
      }
    },
    {
      "SJPR": {
        "airport_name": "Asas de Balsa Nova",
        "city": "BALSA NOVA",
        "latitude": -24.450555555555553,
        "longitude": -48.356944444444444
      }
    },
    {
      "SJP8": {
        "airport_name": "Associação Aeroclube de Faxinal",
        "city": "FAXINAL",
        "latitude": -22.02861111111111,
        "longitude": -50.67166666666667
      }
    },
    {
      "SBBI": {
        "airport_name": "Bacacheri",
        "city": "CURITIBA",
        "latitude": -24.596666666666668,
        "longitude": -48.76638888888889,
        "airspace_class": "CLASS B"
      }
    },
    {
      "SSCR": {
        "airport_name": "Balduino Helmuth Jope",
        "city": "MARECHAL CÂNDIDO RONDON",
        "latitude": -23.487222222222222,
        "longitude": -53.94527777777778
      }
    },
    {
      "SNBB": {
        "airport_name": "BMR Medical",
        "city": "CAMPINA GRANDE DO SUL",
        "latitude": -24.653055555555557,
        "longitude": -48.94277777777778
      }
    },
    {
      "SJJS": {
        "airport_name": "BS Colway",
        "city": "PIRAQUARA",
        "latitude": -24.538611111111113,
        "longitude": -48.89722222222222
      }
    },
    {
      "SJLR": {
        "airport_name": "Cambiju",
        "city": "PONTA GROSSA",
        "latitude": -24.753055555555555,
        "longitude": -48.081944444444446
      }
    },
    {
      "SSKM": {
        "airport_name": "Campo Mourão",
        "city": "CAMPO MOURÃO",
        "latitude": -23.9975,
        "longitude": -51.643055555555556
      }
    },
    {
      "SINP": {
        "airport_name": "Campo Primavera",
        "city": "SANTA MÔNICA",
        "latitude": -22.87861111111111,
        "longitude": -52.92166666666667
      }
    },
    {
      "SSAP": {
        "airport_name": "Capitão João Busse",
        "city": "APUCARANA",
        "latitude": -22.387777777777778,
        "longitude": -50.615
      }
    },
    {
      "SSQT": {
        "airport_name": "Castro",
        "city": "CASTRO",
        "latitude": -23.1925,
        "longitude": -48.03972222222222
      }
    },
    {
      "SSKP": {
        "airport_name": "CEAL",
        "city": "PALOTINA",
        "latitude": -23.69111111111111,
        "longitude": -52.157777777777774
      }
    },
    {
      "SJSM": {
        "airport_name": "Chácara Marcella",
        "city": "GOIOERÊ",
        "latitude": -23.790277777777778,
        "longitude": -52.99055555555555
      }
    },
    {
      "SWMT": {
        "airport_name": "Chácara São Matheus",
        "city": "JAPURÁ",
        "latitude": -22.515,
        "longitude": -51.427499999999995
      }
    },
    {
      "SJUT": {
        "airport_name": "Cimento Rio Branco",
        "city": "RIO BRANCO DO SUL",
        "latitude": -24.804444444444446,
        "longitude": -48.68083333333333
      }
    },
    {
      "SDKB": {
        "airport_name": "CJB CURITIBA",
        "city": "CURITIBA",
        "latitude": -24.561944444444443,
        "longitude": -48.75944444444444
      }
    },
    {
      "SWES": {
        "airport_name": "Clube de Aviação Experimental do Paraná",
        "city": "IBIPORÃ",
        "latitude": -22.712777777777777,
        "longitude": -50.90944444444444
      }
    },
    {
      "SBPG": {
        "airport_name": "Comandante Antônio Amilton Beraldo",
        "city": "PONTA GROSSA",
        "latitude": -24.815555555555555,
        "longitude": -49.85611111111111,
        "airspace_class": "CLASS E"
      }
    },
    {
      "SWIT": {
        "airport_name": "Condomínio de Voo Itaipu - CVI",
        "city": "SANTA TEREZINHA DE ITAIPU",
        "latitude": -24.515555555555554,
        "longitude": -53.55861111111111
      }
    },
    {
      "SDXC": {
        "airport_name": "Condor",
        "city": "CURITIBA",
        "latitude": -24.484444444444446,
        "longitude": -48.70305555555556
      }
    },
    {
      "SDML": {
        "airport_name": "Destro Macro",
        "city": "CURITIBA",
        "latitude": -24.441666666666666,
        "longitude": -48.69638888888889
      }
    },
    {
      "SSPS": {
        "airport_name": "Dimorvan Carraro",
        "city": "PALMAS",
        "latitude": -25.52777777777778,
        "longitude": -50.02444444444444
      }
    },
    {
      "SIJR": {
        "airport_name": "Ely Rego",
        "city": "BALSA NOVA",
        "latitude": -24.460555555555555,
        "longitude": -48.4
      }
    },
    {
      "SNNM": {
        "airport_name": "Entre Rios",
        "city": "GUARAPUAVA",
        "latitude": -24.433888888888887,
        "longitude": -50.50333333333333
      }
    },
    {
      "SJAJ": {
        "airport_name": "Estação Convention Center",
        "city": "CURITIBA",
        "latitude": -24.56111111111111,
        "longitude": -48.73222222222223
      }
    },
    {
      "SIB7": {
        "airport_name": "Estancia Campo Verde",
        "city": "UBIRATÃ",
        "latitude": -23.53166666666667,
        "longitude": -51.11472222222222
      }
    },
    {
      "SWOE": {
        "airport_name": "Estância do Sol",
        "city": "ARAPONGAS",
        "latitude": -22.491666666666667,
        "longitude": -50.56888888888889
      }
    },
    {
      "SSFE": {
        "airport_name": "Estância Hércules",
        "city": "FOZ DO IGUAÇU",
        "latitude": -24.539166666666667,
        "longitude": -53.401666666666664
      }
    },
    {
      "SWEP": {
        "airport_name": "Estância Punta Del Este",
        "city": "SERTANEJA",
        "latitude": -21.195555555555554,
        "longitude": -49.01722222222222
      }
    },
    {
      "SDSJ": {
        "airport_name": "Executivo",
        "city": "CASCAVEL",
        "latitude": -23.12861111111111,
        "longitude": -52.53472222222222
      }
    },
    {
      "SI9Z": {
        "airport_name": "Fazenda Bandeirantes",
        "city": "GOIOERÊ",
        "latitude": -23.796111111111113,
        "longitude": -51.01722222222222
      }
    },
    {
      "SDXO": {
        "airport_name": "Fazenda Barra Grande",
        "city": "TOMAZINA",
        "latitude": -22.410833333333336,
        "longitude": -49.964444444444446
      }
    },
    {
      "SJVS": {
        "airport_name": "Fazenda Boa Vista",
        "city": "SANTA FÉ",
        "latitude": -22.920833333333334,
        "longitude": -50.22083333333333
      }
    },
    {
      "SIAI": {
        "airport_name": "Fazenda Esteirinha",
        "city": "GOIOERÊ",
        "latitude": -23.790833333333335,
        "longitude": -52.81861111111111
      }
    },
    {
      "SN7Q": {
        "airport_name": "Fazenda Festugato",
        "city": "SANTA TEREZA DO OESTE",
        "latitude": -24.951388888888886,
        "longitude": -52.43666666666667
      }
    },
    {
      "SSXG": {
        "airport_name": "Fazenda Guanabara",
        "city": "PARANAPOEMA",
        "latitude": -21.338333333333335,
        "longitude": -51.8575
      }
    },
    {
      "SSGU": {
        "airport_name": "Fazenda Gurucaia",
        "city": "SANTA ISABEL DO IVAÍ",
        "latitude": -22.81361111111111,
        "longitude": -52.67361111111111
      }
    },
    {
      "SJDI": {
        "airport_name": "Fazenda Ipiranga",
        "city": "LOANDA",
        "latitude": -21.081944444444442,
        "longitude": -52.931666666666665
      }
    },
    {
      "SSJP": {
        "airport_name": "Fazenda Junqueira",
        "city": "COLORADO",
        "latitude": -21.109166666666667,
        "longitude": -50.075
      }
    },
    {
      "SSHL": {
        "airport_name": "Fazenda Jussara",
        "city": "JUSSARA",
        "latitude": -22.425,
        "longitude": -51.58861111111111
      }
    },
    {
      "SIYM": {
        "airport_name": "Fazenda Montesion",
        "city": "TOLEDO",
        "latitude": -23.118333333333332,
        "longitude": -52.24527777777778
      }
    },
    {
      "SJ62": {
        "airport_name": "Fazenda Nossa Senhora de Lourdes",
        "city": "DIAMANTE DO NORTE",
        "latitude": -21.353333333333335,
        "longitude": -51.052777777777784
      }
    },
    {
      "SSHP": {
        "airport_name": "Fazenda Paiol do Piquiri",
        "city": "GOIOXIM",
        "latitude": -24.952777777777776,
        "longitude": -50.07694444444445
      }
    },
    {
      "SSUW": {
        "airport_name": "Fazenda Palmeiras",
        "city": "CENTENÁRIO DO SUL",
        "latitude": -21.224722222222223,
        "longitude": -50.49583333333333
      }
    },
    {
      "SNUA": {
        "airport_name": "Fazenda Paulista",
        "city": "SANTA TEREZINHA DE ITAIPU",
        "latitude": -24.608333333333334,
        "longitude": -53.59
      }
    },
    {
      "SSFX": {
        "airport_name": "Fazenda Primavera",
        "city": "NOVA FÁTIMA",
        "latitude": -22.54277777777778,
        "longitude": -49.418611111111105
      }
    },
    {
      "SJEL": {
        "airport_name": "Fazenda Santa Helena",
        "city": "CORNÉLIO PROCÓPIO",
        "latitude": -22.659444444444446,
        "longitude": -49.415
      }
    },
    {
      "SWAI": {
        "airport_name": "Fazenda Santa Luzia",
        "city": "ICARAÍMA",
        "latitude": -22.65,
        "longitude": -52.500277777777775
      }
    },
    {
      "SSLX": {
        "airport_name": "Fazenda Santa Lydia",
        "city": "DIAMANTE DO NORTE",
        "latitude": -21.366944444444442,
        "longitude": -51.19166666666667
      }
    },
    {
      "SWSA": {
        "airport_name": "Fazenda Santa Maria",
        "city": "LONDRINA",
        "latitude": -22.504166666666666,
        "longitude": -50.68
      }
    },
    {
      "SN4L": {
        "airport_name": "Fazenda Santa Maria",
        "city": "CORNÉLIO PROCÓPIO",
        "latitude": -22.700833333333332,
        "longitude": -49.38194444444444
      }
    },
    {
      "SWLS": {
        "airport_name": "Fazenda São Luis",
        "city": "PALOTINA",
        "latitude": -23.801111111111112,
        "longitude": -52.12583333333333
      }
    },
    {
      "SJB6": {
        "airport_name": "Fazenda São Luís",
        "city": "RONCADOR",
        "latitude": -23.447777777777777,
        "longitude": -51.61333333333334
      }
    },
    {
      "SNWH": {
        "airport_name": "Fazenda São Matheus",
        "city": "QUERÊNCIA DO NORTE",
        "latitude": -21.038055555555555,
        "longitude": -52.45333333333333
      }
    },
    {
      "SDUE": {
        "airport_name": "Fazenda Thália",
        "city": "BALSA NOVA",
        "latitude": -24.47982222222222,
        "longitude": -48.31777777777778
      }
    },
    {
      "SIDY": {
        "airport_name": "Fazenda Yanduy",
        "city": "LUNARDELLI",
        "latitude": -23.9225,
        "longitude": -50.18055555555555
      }
    },
    {
      "SNDF": {
        "airport_name": "Fecularia Lopes",
        "city": "ITAÚNA DO SUL",
        "latitude": -21.233333333333334,
        "longitude": -51.12305555555555
      }
    },
    {
      "SIHE": {
        "airport_name": "Fortesolo",
        "city": "PARANAGUÁ",
        "latitude": -24.445833333333333,
        "longitude": -47.44222222222223
      }
    },
    {
      "SSFA": {
        "airport_name": "Foz do Areia",
        "city": "PINHÃO",
        "latitude": -24.018333333333334,
        "longitude": -50.35916666666667
      }
    },
    {
      "SJYX": {
        "airport_name": "Foz do Chopim",
        "city": "CRUZEIRO DO IGUAÇU",
        "latitude": -24.428055555555556,
        "longitude": -52.87694444444445
      }
    },
    {
      "SSFY": {
        "airport_name": "Furnas Centrais Elétricas",
        "city": "FOZ DO IGUAÇU",
        "latitude": -24.526666666666667,
        "longitude": -53.45805555555556
      }
    },
    {
      "SBLO": {
        "airport_name": "Governador José Richa",
        "city": "LONDRINA",
        "latitude": -22.669722222222223,
        "longitude": -50.86333333333334,
        "airspace_class": "CLASS C"
      }
    },
    {
      "SWYG": {
        "airport_name": "Graciosa",
        "city": "PIRAQUARA",
        "latitude": -24.593611111111112,
        "longitude": -48.947500000000005
      }
    },
    {
      "SDRG": {
        "airport_name": "Graciosa",
        "city": "PINHAIS",
        "latitude": -24.608055555555556,
        "longitude": -48.84388888888889
      }
    },
    {
      "SWGE": {
        "airport_name": "Green Technology",
        "city": "CAMPO LARGO",
        "latitude": -24.564444444444444,
        "longitude": -48.57416666666667
      }
    },
    {
      "SSGY": {
        "airport_name": "Guaíra",
        "city": "GUAÍRA",
        "latitude": -23.920277777777777,
        "longitude": -53.81194444444445
      }
    },
    {
      "SIFY": {
        "airport_name": "Heliponto Conduspar",
        "city": "SÃO JOSÉ DOS PINHAIS",
        "latitude": -24.427500000000002,
        "longitude": -48.847500000000004
      }
    },
    {
      "SJAB": {
        "airport_name": "Helisul - Cataratas",
        "city": "FOZ DO IGUAÇU",
        "latitude": -24.307222222222222,
        "longitude": -53.5675
      }
    },
    {
      "SJAX": {
        "airport_name": "Helisul Afonso Pena",
        "city": "SÃO JOSÉ DOS PINHAIS",
        "latitude": -24.463055555555552,
        "longitude": -48.82055555555556
      }
    },
    {
      "SSHH": {
        "airport_name": "Helisul I",
        "city": "FOZ DO IGUAÇU",
        "latitude": -24.39111111111111,
        "longitude": -53.506388888888885
      }
    },
    {
      "SSHS": {
        "airport_name": "Helisul IV",
        "city": "FOZ DO IGUAÇU",
        "latitude": -24.386944444444442,
        "longitude": -53.518611111111106
      }
    },
    {
      "SSHI": {
        "airport_name": "HELPN IURD",
        "city": "CURITIBA",
        "latitude": -24.557777777777776,
        "longitude": -48.73861111111111
      }
    },
    {
      "SSAN": {
        "airport_name": "JOÃO GALDINO",
        "city": "ANDIRÁ",
        "latitude": -22.97277777777778,
        "longitude": -49.77305555555555
      }
    },
    {
      "SWCT": {
        "airport_name": "Laguna Iguaçu",
        "city": "CURITIBA",
        "latitude": -24.550833333333333,
        "longitude": -48.711111111111116
      }
    },
    {
      "SBTD": {
        "airport_name": "Luiz Dalcanale Filho",
        "city": "TOLEDO",
        "latitude": -23.314722222222223,
        "longitude": -52.30361111111112,
        "airspace_class": "CLASS E"
      }
    },
    {
      "SWWE": {
        "airport_name": "M. Baumann",
        "city": "PIÊN",
        "latitude": -25.964166666666664,
        "longitude": -48.49916666666667
      }
    },
    {
      "SSMR": {
        "airport_name": "Manoel Ribas",
        "city": "MANOEL RIBAS",
        "latitude": -23.470555555555556,
        "longitude": -50.348333333333336
      }
    },
    {
      "SSGW": {
        "airport_name": "Manoel Ribas",
        "city": "GOIOERÊ",
        "latitude": -23.78027777777778,
        "longitude": -52.95611111111111
      }
    },
    {
      "SSCF": {
        "airport_name": "Max Fontoura",
        "city": "CAMPO LARGO",
        "latitude": -24.573888888888888,
        "longitude": -48.47611111111111
      }
    },
    {
      "SIOE": {
        "airport_name": "Mocelin",
        "city": "DOIS VIZINHOS",
        "latitude": -24.20611111111111,
        "longitude": -52.96416666666667
      }
    },
    {
      "SSAB": {
        "airport_name": "Moisés Lupion",
        "city": "IBAITI",
        "latitude": -22.237222222222222,
        "longitude": -49.73694444444445
      }
    },
    {
      "SWTM": {
        "airport_name": "Moro Golf Club",
        "city": "PONTA GROSSA",
        "latitude": -24.885277777777777,
        "longitude": -49.82777777777778
      }
    },
    {
      "SSGB": {
        "airport_name": "Municipal de Guaratuba",
        "city": "GUARATUBA",
        "latitude": -24.119444444444444,
        "longitude": -47.38777777777778
      }
    },
    {
      "SBQJ": {
        "airport_name": "Osvaldo de Carvalho",
        "city": "IBAITI",
        "latitude": -22.15361111111111,
        "longitude": -49.791666666666664
      }
    },
    {
      "SSOF": {
        "airport_name": "Ouro Verde",
        "city": "CURITIBA",
        "latitude": -24.491944444444446,
        "longitude": -48.66777777777777
      }
    },
    {
      "SSLU": {
        "airport_name": "Palazzo Lumini",
        "city": "CURITIBA",
        "latitude": -24.560277777777777,
        "longitude": -48.657777777777774
      }
    },
    {
      "SIOX": {
        "airport_name": "Palhano Premium",
        "city": "LONDRINA",
        "latitude": -22.664444444444445,
        "longitude": -50.82333333333334
      }
    },
    {
      "SSPX": {
        "airport_name": "Paraná Moda Park",
        "city": "MARINGÁ",
        "latitude": -22.5375,
        "longitude": -50.00666666666667
      }
    },
    {
      "SSBP": {
        "airport_name": "Parque Barigui",
        "city": "CURITIBA",
        "latitude": -24.56888888888889,
        "longitude": -48.68472222222223
      }
    },
    {
      "SISY": {
        "airport_name": "Piraquara",
        "city": "PIRAQUARA",
        "latitude": -24.54861111111111,
        "longitude": -48.85611111111111
      }
    },
    {
      "SJW8": {
        "airport_name": "Plenovale",
        "city": "TUNAS DO PARANÁ",
        "latitude": -23.019444444444446,
        "longitude": -48.90361111111111
      }
    },
    {
      "SSJF": {
        "airport_name": "Polícia Federal Curitiba",
        "city": "CURITIBA",
        "latitude": -24.62388888888889,
        "longitude": -48.77222222222222
      }
    },
    {
      "SJPF": {
        "airport_name": "Polícia Federal-Foz do Iguaçu",
        "city": "FOZ DO IGUAÇU",
        "latitude": -24.483333333333334,
        "longitude": -53.426111111111105
      }
    },
    {
      "SD6O": {
        "airport_name": "Pontal das Garças",
        "city": "RIBEIRÃO CLARO",
        "latitude": -22.70722222222222,
        "longitude": -48.262499999999996
      }
    },
    {
      "SIZW": {
        "airport_name": "Portal do Porto",
        "city": "SÃO JOSÉ DOS PINHAIS",
        "latitude": -24.485555555555557,
        "longitude": -48.86805555555556
      }
    },
    {
      "SIUP": {
        "airport_name": "Pousada Fazenda Virá",
        "city": "TEIXEIRA SOARES",
        "latitude": -24.61111111111111,
        "longitude": -49.456944444444446
      }
    },
    {
      "SJ96": {
        "airport_name": "Prudentópolis",
        "city": "PRUDENTÓPOLIS",
        "latitude": -24.8175,
        "longitude": -49.07694444444445
      }
    },
    {
      "SIMC": {
        "airport_name": "Punta Del Este",
        "city": "SERTANEJA",
        "latitude": -21.191944444444445,
        "longitude": -49.00555555555555
      }
    },
    {
      "SDEQ": {
        "airport_name": "Quatro Barras",
        "city": "QUATRO BARRAS",
        "latitude": -24.62333333333333,
        "longitude": -48.915277777777774
      }
    },
    {
      "SSRE": {
        "airport_name": "Realeza",
        "city": "REALEZA",
        "latitude": -24.198888888888888,
        "longitude": -52.48694444444445
      }
    },
    {
      "SSHN": {
        "airport_name": "Recanto das Águias",
        "city": "IGUARAÇU",
        "latitude": -22.754444444444445,
        "longitude": -50.123888888888885
      }
    },
    {
      "SI2M": {
        "airport_name": "Residencial Fornagieri",
        "city": "PARANAVAÍ",
        "latitude": -22.9,
        "longitude": -51.52972222222222
      }
    },
    {
      "SJY8": {
        "airport_name": "Risicola VR",
        "city": "SANTA ISABEL DO IVAÍ",
        "latitude": -22.816111111111113,
        "longitude": -52.78444444444444
      }
    },
    {
      "SJRL": {
        "airport_name": "Ryhad Palace Hotel",
        "city": "ARAUCÁRIA",
        "latitude": -24.41722222222222,
        "longitude": -48.60305555555556
      }
    },
    {
      "SSNM": {
        "airport_name": "Santa Mônica",
        "city": "COLOMBO",
        "latitude": -24.618055555555554,
        "longitude": -48.86194444444445
      }
    },
    {
      "SSMY": {
        "airport_name": "São Miguel do Iguaçu",
        "city": "SÃO MIGUEL DO IGUAÇU",
        "latitude": -24.607222222222223,
        "longitude": -53.73166666666667
      }
    },
    {
      "SNPM": {
        "airport_name": "SCHÕN",
        "city": "PITANGA",
        "latitude": -23.245555555555555,
        "longitude": -50.23888888888889
      }
    },
    {
      "SSEG": {
        "airport_name": "Sementes Guerra",
        "city": "RENASCENÇA",
        "latitude": -25.709999999999997,
        "longitude": -51.06277777777778
      }
    },
    {
      "SJKK": {
        "airport_name": "Sérgio Bonifácio",
        "city": "IVAIPORÃ",
        "latitude": -23.736483333333332,
        "longitude": -50.36027777777778
      }
    },
    {
      "SD7C": {
        "airport_name": "Serrinha",
        "city": "PALMEIRA",
        "latitude": -24.540833333333335,
        "longitude": -49.965
      }
    },
    {
      "SSSZ": {
        "airport_name": "Sertanópolis",
        "city": "SERTANÓPOLIS",
        "latitude": -22.938055555555554,
        "longitude": -50.986111111111114
      }
    },
    {
      "SSCY": {
        "airport_name": "Sikorski",
        "city": "CAMPO LARGO",
        "latitude": -24.56138888888889,
        "longitude": -48.551388888888894
      }
    },
    {
      "SBMG": {
        "airport_name": "Silvio Name Junior",
        "city": "MARINGÁ",
        "latitude": -22.523611111111112,
        "longitude": -51.98222222222223,
        "airspace_class": "CLASS D"
      }
    },
    {
      "SSQC": {
        "airport_name": "Siqueira Campos",
        "city": "SIQUEIRA CAMPOS",
        "latitude": -22.325277777777778,
        "longitude": -48.184444444444445
      }
    },
    {
      "SSSP": {
        "airport_name": "Sítio Primavera",
        "city": "BOM JESUS DO SUL",
        "latitude": -25.818055555555553,
        "longitude": -52.36
      }
    },
    {
      "SWTT": {
        "airport_name": "Supermax",
        "city": "CURITIBA",
        "latitude": -24.5675,
        "longitude": -48.67388888888888
      }
    },
    {
      "SWTB": {
        "airport_name": "Tarobá",
        "city": "SANTA TEREZINHA DE ITAIPU",
        "latitude": -24.451944444444443,
        "longitude": -53.51472222222222
      }
    },
    {
      "SJQA": {
        "airport_name": "Teimoso",
        "city": "CAMPO LARGO",
        "latitude": -24.57333333333333,
        "longitude": -48.47527777777778
      }
    },
    {
      "SSVL": {
        "airport_name": "TELÊMACO BORBA",
        "city": "TELÊMACO BORBA",
        "latitude": -23.68361111111111,
        "longitude": -49.34777777777778
      }
    },
    {
      "SNTT": {
        "airport_name": "Teston",
        "city": "CIANORTE",
        "latitude": -22.34305555555556,
        "longitude": -51.46055555555556
      }
    },
    {
      "SDA9": {
        "airport_name": "Tijucas do Sul",
        "city": "TIJUCAS DO SUL",
        "latitude": -24.12611111111111,
        "longitude": -48.82472222222223
      }
    },
    {
      "SI4Z": {
        "airport_name": "Toledo Aviação",
        "city": "TOLEDO",
        "latitude": -23.36138888888889,
        "longitude": -52.34527777777778
      }
    },
    {
      "SJST": {
        "airport_name": "Umbará Energy",
        "city": "CURITIBA",
        "latitude": -24.39611111111111,
        "longitude": -48.70638888888889
      }
    },
    {
      "SDDZ": {
        "airport_name": "Vila São Paulo/Mercosul",
        "city": "ALVORADA DO SUL",
        "latitude": -21.303333333333335,
        "longitude": -50.6675
      }
    },
    {
      "SINZ": {
        "airport_name": "Xanadu",
        "city": "FERNANDES PINHEIRO",
        "latitude": -24.561944444444443,
        "longitude": -49.47222222222222
      }
    }
  ],
  "SP": [
    {
      "SSFR": {
        "airport_name": "18 do Forte Empresarial",
        "city": "BARUERI",
        "latitude": -22.516111111111112,
        "longitude": -45.14333333333333
      }
    },
    {
      "SDZD": {
        "airport_name": "ABB Sorocaba",
        "city": "SOROCABA",
        "latitude": -22.57472222222222,
        "longitude": -46.63805555555555
      }
    },
    {
      "SJZX": {
        "airport_name": "Abreu Rocha",
        "city": "PRAIA GRANDE",
        "latitude": -23.993055555555557,
        "longitude": -45.585277777777776
      }
    },
    {
      "SNLP": {
        "airport_name": "Acapulco Guarujá",
        "city": "GUARUJÁ",
        "latitude": -22.045555555555556,
        "longitude": -45.79833333333333
      }
    },
    {
      "SDAC": {
        "airport_name": "Aché",
        "city": "GUARULHOS",
        "latitude": -22.52527777777778,
        "longitude": -45.47777777777778
      }
    },
    {
      "SDGG": {
        "airport_name": "Aché Faria Lima",
        "city": "SÃO PAULO",
        "latitude": -22.439166666666665,
        "longitude": -45.30583333333334
      }
    },
    {
      "SIOR": {
        "airport_name": "Adhemar Ribeiro",
        "city": "SANTA RITA DO PASSA QUATRO",
        "latitude": -20.358055555555556,
        "longitude": -46.53
      }
    },
    {
      "SSYS": {
        "airport_name": "Aero do Vale Miracatu",
        "city": "MIRACATU",
        "latitude": -23.694444444444443,
        "longitude": -46.496944444444445
      }
    },
    {
      "SWDI": {
        "airport_name": "Aeroagrícola Solo",
        "city": "PARANAPANEMA",
        "latitude": -22.552222222222223,
        "longitude": -47.1325
      }
    },
    {
      "SDID": {
        "airport_name": "Aeroata",
        "city": "ARAÇATUBA",
        "latitude": -20.746944444444445,
        "longitude": -49.46555555555556
      }
    },
    {
      "SJWQ": {
        "airport_name": "Aeroclube de Birigui - CMTE Munir Djabak",
        "city": "BIRIGUI",
        "latitude": -20.783333333333335,
        "longitude": -49.69416666666667
      }
    },
    {
      "SDH4": {
        "airport_name": "Aeroclube de Itapeva",
        "city": "ITAPEVA",
        "latitude": -22.058888888888887,
        "longitude": -47.11694444444444
      }
    },
    {
      "SDIO": {
        "airport_name": "Aeroclube de Itápolis",
        "city": "ITÁPOLIS",
        "latitude": -20.400277777777777,
        "longitude": -47.16722222222222
      }
    },
    {
      "SJ2Y": {
        "airport_name": "Aeroclube de Lucélia - Cmte João Possibom",
        "city": "LUCÉLIA",
        "latitude": -20.251388888888886,
        "longitude": -50.98277777777778
      }
    },
    {
      "SSRG": {
        "airport_name": "Aeroporto Estadual de Registro",
        "city": "REGISTRO",
        "latitude": -23.468333333333334,
        "longitude": -46.15972222222222
      }
    },
    {
      "SIHW": {
        "airport_name": "Agrishow",
        "city": "RIBEIRÃO PRETO",
        "latitude": -20.788333333333334,
        "longitude": -46.13388888888889
      }
    },
    {
      "SSDA": {
        "airport_name": "Água Mansa",
        "city": "SÃO SEBASTIÃO",
        "latitude": -22.25861111111111,
        "longitude": -44.59583333333333
      }
    },
    {
      "SWSK": {
        "airport_name": "Akron",
        "city": "SÃO PAULO",
        "latitude": -22.390833333333333,
        "longitude": -45.39416666666666
      }
    },
    {
      "SJXP": {
        "airport_name": "Alice Maria Sampaio Ferreira",
        "city": "SÃO PAULO",
        "latitude": -22.388888888888886,
        "longitude": -45.30555555555556
      }
    },
    {
      "SN48": {
        "airport_name": "Almarias",
        "city": "JARINU",
        "latitude": -22.864722222222223,
        "longitude": -45.215833333333336
      }
    },
    {
      "SWUP": {
        "airport_name": "Almenat",
        "city": "EMBU DAS ARTES",
        "latitude": -22.35361111111111,
        "longitude": -45.1175
      }
    },
    {
      "SDQS": {
        "airport_name": "Alpendre Eventos",
        "city": "TAUBATÉ",
        "latitude": -22.8625,
        "longitude": -44.525
      }
    },
    {
      "SDIK": {
        "airport_name": "Alpha Business Empresarial",
        "city": "CAMPINAS",
        "latitude": -21.180555555555557,
        "longitude": -46.96472222222222
      }
    },
    {
      "SIPI": {
        "airport_name": "Alphacentro",
        "city": "BARUERI",
        "latitude": -22.501944444444444,
        "longitude": -45.13777777777778
      }
    },
    {
      "SN3D": {
        "airport_name": "Alphaville Nova Esplanada 2",
        "city": "VOTORANTIM",
        "latitude": -22.44111111111111,
        "longitude": -46.526111111111106
      }
    },
    {
      "SNHL": {
        "airport_name": "Ama",
        "city": "ARUJÁ",
        "latitude": -22.600277777777777,
        "longitude": -45.691388888888895
      }
    },
    {
      "SNAZ": {
        "airport_name": "Amazônia",
        "city": "BARUERI",
        "latitude": -22.50722222222222,
        "longitude": -45.150277777777774
      }
    },
    {
      "SWYF": {
        "airport_name": "Ambipar",
        "city": "AMERICANA",
        "latitude": -21.24,
        "longitude": -46.74583333333333
      }
    },
    {
      "SDHF": {
        "airport_name": "Ambroso",
        "city": "SÃO JOÃO DA BOA VISTA",
        "latitude": -20.033333333333335,
        "longitude": -45.24777777777778
      }
    },
    {
      "SIE7": {
        "airport_name": "Animalia Park",
        "city": "COTIA",
        "latitude": -22.378055555555555,
        "longitude": -45.03055555555555
      }
    },
    {
      "SDP7": {
        "airport_name": "Antenor Duarte Vilela",
        "city": "BARRETOS",
        "latitude": -19.50611111111111,
        "longitude": -83.96583333333334
      }
    },
    {
      "SWOP": {
        "airport_name": "APTA",
        "city": "SÃO BERNARDO DO CAMPO",
        "latitude": -22.231944444444444,
        "longitude": -45.40722222222222
      }
    },
    {
      "SI3J": {
        "airport_name": "AR TELECOM",
        "city": "MOCOCA",
        "latitude": -20.48611111111111,
        "longitude": -46.97555555555556
      }
    },
    {
      "SDAA": {
        "airport_name": "Araras",
        "city": "ARARAS",
        "latitude": -21.663055555555555,
        "longitude": -46.641666666666666
      }
    },
    {
      "SBOP": {
        "airport_name": "Arena Corinthians",
        "city": "SÃO PAULO",
        "latitude": -22.45583333333333,
        "longitude": -45.52222222222222
      }
    },
    {
      "SDLY": {
        "airport_name": "Armando Natali",
        "city": "MATÃO",
        "latitude": -20.375833333333333,
        "longitude": -47.649166666666666
      }
    },
    {
      "SNIA": {
        "airport_name": "Arujá",
        "city": "ARUJÁ",
        "latitude": -22.605833333333333,
        "longitude": -45.64555555555555
      }
    },
    {
      "SDBN": {
        "airport_name": "Associação Recreativa Fazenda Bonanza",
        "city": "SALTO DE PIRAPORA",
        "latitude": -22.31277777777778,
        "longitude": -46.4425
      }
    },
    {
      "SDPC": {
        "airport_name": "Atena",
        "city": "RANCHARIA",
        "latitude": -21.847222222222225,
        "longitude": -50.97138888888889
      }
    },
    {
      "SDTB": {
        "airport_name": "ATIBAIA",
        "city": "ATIBAIA",
        "latitude": -22.871666666666666,
        "longitude": -45.42527777777777
      }
    },
    {
      "SJBP": {
        "airport_name": "Atrium VI.com",
        "city": "SÃO PAULO",
        "latitude": -22.404444444444447,
        "longitude": -45.3125
      }
    },
    {
      "SSVZ": {
        "airport_name": "Autovias",
        "city": "RIBEIRÃO PRETO",
        "latitude": -20.83666666666667,
        "longitude": -46.245
      }
    },
    {
      "SDJI": {
        "airport_name": "AVIBRÁS II",
        "city": "JACAREÍ",
        "latitude": -22.67388888888889,
        "longitude": -44.18333333333333
      }
    },
    {
      "SJXR": {
        "airport_name": "B. Cao Viño",
        "city": "PRAIA GRANDE",
        "latitude": -23.99,
        "longitude": -45.5825
      }
    },
    {
      "SDBV": {
        "airport_name": "Balneário São Januário",
        "city": "ILHA COMPRIDA",
        "latitude": -23.129166666666666,
        "longitude": -46.24166666666667
      }
    },
    {
      "SDOS": {
        "airport_name": "Banaer",
        "city": "SETE BARRAS",
        "latitude": -23.58083333333333,
        "longitude": -46.130833333333335
      }
    },
    {
      "SIVW": {
        "airport_name": "Banaer de Jacupiranga",
        "city": "JACUPIRANGA",
        "latitude": -23.29,
        "longitude": -47.97611111111111
      }
    },
    {
      "SDMT": {
        "airport_name": "Banco Bradesco Av. Paulista",
        "city": "SÃO PAULO",
        "latitude": -22.43777777777778,
        "longitude": -45.345
      }
    },
    {
      "SIBG": {
        "airport_name": "Banco Induscred",
        "city": "SÃO PAULO",
        "latitude": -22.435555555555556,
        "longitude": -45.344166666666666
      }
    },
    {
      "SDSZ": {
        "airport_name": "Banco Safra",
        "city": "SÃO PAULO",
        "latitude": -22.441944444444445,
        "longitude": -45.34027777777778
      }
    },
    {
      "SWHH": {
        "airport_name": "Banco Santander",
        "city": "SÃO PAULO",
        "latitude": -22.409166666666668,
        "longitude": -45.30916666666667
      }
    },
    {
      "SSZE": {
        "airport_name": "Banco Sofisa",
        "city": "SÃO PAULO",
        "latitude": -22.43722222222222,
        "longitude": -45.344166666666666
      }
    },
    {
      "SWST": {
        "airport_name": "Bandeiras Centro Empresarial",
        "city": "VOTORANTIM",
        "latitude": -22.46333333333333,
        "longitude": -46.55055555555556
      }
    },
    {
      "SNGZ": {
        "airport_name": "Bardahl",
        "city": "CAJAMAR",
        "latitude": -22.659722222222225,
        "longitude": -45.155
      }
    },
    {
      "SDBY": {
        "airport_name": "Bariri",
        "city": "BARIRI",
        "latitude": -21.930833333333332,
        "longitude": -47.29361111111111
      }
    },
    {
      "SDEK": {
        "airport_name": "Barra do Una",
        "city": "SÃO SEBASTIÃO",
        "latitude": -22.264166666666664,
        "longitude": -44.253055555555555
      }
    },
    {
      "SD4I": {
        "airport_name": "Base Armalite",
        "city": "ITU",
        "latitude": -22.720833333333335,
        "longitude": -46.663888888888884
      }
    },
    {
      "SBTA": {
        "airport_name": "Base de Aviação de Taubaté",
        "city": "TAUBATÉ",
        "latitude": -22.96111111111111,
        "longitude": -44.48416666666667
      }
    },
    {
      "SBTA": {
        "airport_name": "Base de Aviação de Taubaté",
        "city": "TAUBATÉ",
        "latitude": -22.96111111111111,
        "longitude": -44.48416666666667
      }
    },
    {
      "SIAE": {
        "airport_name": "BASF Guaratinguetá",
        "city": "GUARATINGUETÁ",
        "latitude": -21.21388888888889,
        "longitude": -44.829166666666666
      }
    },
    {
      "SDBA": {
        "airport_name": "Batatais",
        "city": "BATATAIS",
        "latitude": -19.123055555555556,
        "longitude": -46.41416666666667
      }
    },
    {
      "SBBU": {
        "airport_name": "Bauru",
        "city": "BAURU",
        "latitude": -21.655,
        "longitude": -48.946111111111115
      }
    },
    {
      "SBAE": {
        "airport_name": "Bauru - Arealva",
        "city": "BAURU",
        "latitude": -21.842222222222222,
        "longitude": -48.931666666666665,
        "airspace_class": "CLASS D"
      }
    },
    {
      "SN7N": {
        "airport_name": "Bay Park",
        "city": "VINHEDO",
        "latitude": -22.926944444444445,
        "longitude": -46.995555555555555
      }
    },
    {
      "SDBB": {
        "airport_name": "Bebedouro",
        "city": "BEBEDOURO",
        "latitude": -19.099722222222223,
        "longitude": -47.52638888888889
      }
    },
    {
      "SNBQ": {
        "airport_name": "Bela Cintra",
        "city": "SÃO PAULO",
        "latitude": -22.44611111111111,
        "longitude": -45.34138888888889
      }
    },
    {
      "SDMB": {
        "airport_name": "Benteler",
        "city": "CAMPINAS",
        "latitude": -22.998055555555556,
        "longitude": -46.88305555555556
      }
    },
    {
      "SITO": {
        "airport_name": "Berrini One",
        "city": "SÃO PAULO",
        "latitude": -22.401666666666667,
        "longitude": -45.309444444444445
      }
    },
    {
      "SDGS": {
        "airport_name": "Bertolucci",
        "city": "SÃO PAULO",
        "latitude": -22.414144444444446,
        "longitude": -45.319722222222225
      }
    },
    {
      "SD2O": {
        "airport_name": "Bethaville Empresarial Itu",
        "city": "ITU",
        "latitude": -22.684166666666666,
        "longitude": -46.676944444444445
      }
    },
    {
      "SIIX": {
        "airport_name": "Bira Guimarães",
        "city": "IGARATÁ",
        "latitude": -22.80472222222222,
        "longitude": -45.905277777777776
      }
    },
    {
      "SDNN": {
        "airport_name": "Birmann 21",
        "city": "SÃO PAULO",
        "latitude": -22.43472222222222,
        "longitude": -45.297777777777775
      }
    },
    {
      "SJBG": {
        "airport_name": "Birmann 31",
        "city": "SÃO PAULO",
        "latitude": -22.41,
        "longitude": -45.31805555555556
      }
    },
    {
      "SN66": {
        "airport_name": "Birmann 32",
        "city": "SÃO PAULO",
        "latitude": -22.410833333333336,
        "longitude": -45.3175
      }
    },
    {
      "SSIL": {
        "airport_name": "Blau Farmacêutica",
        "city": "COTIA",
        "latitude": -22.401944444444446,
        "longitude": -45.102222222222224
      }
    },
    {
      "SSOA": {
        "airport_name": "Blue Tree Tower Faria Lima",
        "city": "SÃO PAULO",
        "latitude": -22.40888888888889,
        "longitude": -45.31916666666667
      }
    },
    {
      "SNGL": {
        "airport_name": "Boa Vista",
        "city": "PORTO FELIZ",
        "latitude": -22.668055555555554,
        "longitude": -46.440555555555555
      }
    },
    {
      "SI3I": {
        "airport_name": "Boa Vista Estates",
        "city": "PORTO FELIZ",
        "latitude": -22.67403611111111,
        "longitude": -46.44027777777778
      }
    },
    {
      "SWQA": {
        "airport_name": "Bonini",
        "city": "CAMPOS DO JORDÃO",
        "latitude": -21.26777777777778,
        "longitude": -44.44027777777778
      }
    },
    {
      "SDHB": {
        "airport_name": "Bradesco",
        "city": "OSASCO",
        "latitude": -22.451666666666664,
        "longitude": -45.23111111111111
      }
    },
    {
      "SDHO": {
        "airport_name": "Bradesco - Santo André",
        "city": "SANTO ANDRÉ",
        "latitude": -22.34416666666667,
        "longitude": -45.47166666666667
      }
    },
    {
      "SDBC": {
        "airport_name": "Bradesco Alphaville",
        "city": "BARUERI",
        "latitude": -22.5125,
        "longitude": -45.1425
      }
    },
    {
      "SDGZ": {
        "airport_name": "Bradesco Cidade de Deus",
        "city": "OSASCO",
        "latitude": -22.450555555555553,
        "longitude": -45.22777777777778
      }
    },
    {
      "SIIR": {
        "airport_name": "Brascan Century Plaza",
        "city": "SÃO PAULO",
        "latitude": -22.415833333333335,
        "longitude": -45.324444444444445
      }
    },
    {
      "SIDH": {
        "airport_name": "Brascan Century Plaza Green Valley Commercial",
        "city": "BARUERI",
        "latitude": -22.514444444444443,
        "longitude": -45.13583333333333
      }
    },
    {
      "SDGO": {
        "airport_name": "Braspress",
        "city": "GUARULHOS",
        "latitude": -22.545833333333334,
        "longitude": -45.51444444444444
      }
    },
    {
      "SJVB": {
        "airport_name": "Bugio",
        "city": "PEDRINHAS PAULISTA",
        "latitude": -21.15138888888889,
        "longitude": -49.26833333333333
      }
    },
    {
      "SNDK": {
        "airport_name": "C.T.O. Itaú",
        "city": "SÃO PAULO",
        "latitude": -22.44222222222222,
        "longitude": -45.38444444444444
      }
    },
    {
      "SNJW": {
        "airport_name": "Cabletech",
        "city": "CAÇAPAVA",
        "latitude": -22.82222222222222,
        "longitude": -44.273888888888884
      }
    },
    {
      "SWUS": {
        "airport_name": "Cacau Show",
        "city": "ITAPEVI",
        "latitude": -22.48166666666667,
        "longitude": -45.03444444444444
      }
    },
    {
      "SJ9Q": {
        "airport_name": "Caio - Induscar Indústria e Comércio de Carrocerias Ltda",
        "city": "GUARULHOS",
        "latitude": -22.549722222222222,
        "longitude": -45.54083333333333
      }
    },
    {
      "SDJ6": {
        "airport_name": "Cambury",
        "city": "SÃO SEBASTIÃO",
        "latitude": -22.23111111111111,
        "longitude": -44.36361111111111
      }
    },
    {
      "SBMT": {
        "airport_name": "CAMPO DE MARTE",
        "city": "SÃO PAULO",
        "latitude": -22.490833333333335,
        "longitude": -45.3625,
        "airspace_class": "CLASS C"
      }
    },
    {
      "SBGW": {
        "airport_name": "Campo Edu Chaves",
        "city": "GUARATINGUETÁ",
        "latitude": -21.208333333333332,
        "longitude": -44.79555555555555,
        "airspace_class": "CLASS D"
      }
    },
    {
      "SBYS": {
        "airport_name": "CAMPO FONTENELLE",
        "city": "PIRASSUNUNGA",
        "latitude": -20.015555555555554,
        "longitude": -46.655833333333334
      }
    },
    {
      "SDEI": {
        "airport_name": "Canopus Corporate Alphaville",
        "city": "BARUERI",
        "latitude": -22.496111111111112,
        "longitude": -45.155277777777776
      }
    },
    {
      "SDCA": {
        "airport_name": "Capão Bonito",
        "city": "CAPÃO BONITO",
        "latitude": -23.966388888888886,
        "longitude": -47.643055555555556
      }
    },
    {
      "SWMC": {
        "airport_name": "Capão da Cruz",
        "city": "LUÍS ANTÔNIO",
        "latitude": -20.541666666666668,
        "longitude": -46.11222222222222
      }
    },
    {
      "SJCI": {
        "airport_name": "Capitão PM Paulo José de Menezes Filho",
        "city": "SÃO JOSÉ DOS CAMPOS",
        "latitude": -22.805555555555554,
        "longitude": -44.12583333333333
      }
    },
    {
      "SDYA": {
        "airport_name": "Carmo Couri",
        "city": "SÃO PAULO",
        "latitude": -22.40388888888889,
        "longitude": -45.31277777777778
      }
    },
    {
      "SDVL": {
        "airport_name": "Casa da Pedra",
        "city": "PORTO FELIZ",
        "latitude": -22.664444444444445,
        "longitude": -46.57472222222223
      }
    },
    {
      "SDOK": {
        "airport_name": "Casas Bahia",
        "city": "JUNDIAÍ",
        "latitude": -22.76388888888889,
        "longitude": -45.134166666666665
      }
    },
    {
      "SDGE": {
        "airport_name": "Casas Bahia",
        "city": "SÃO CAETANO DO SUL",
        "latitude": -22.388888888888886,
        "longitude": -45.42916666666666
      }
    },
    {
      "SWKM": {
        "airport_name": "Castelo Branco Office Park - Torre II",
        "city": "BARUERI",
        "latitude": -22.494722222222222,
        "longitude": -45.162499999999994
      }
    },
    {
      "SDCD": {
        "airport_name": "Catanduva",
        "city": "CATANDUVA",
        "latitude": -20.851388888888888,
        "longitude": -47.011944444444445
      }
    },
    {
      "SJYV": {
        "airport_name": "Cauê-Apiaí",
        "city": "APIAÍ",
        "latitude": -23.48277777777778,
        "longitude": -47.14972222222222
      }
    },
    {
      "SIET": {
        "airport_name": "CD 19",
        "city": "GUARUJÁ",
        "latitude": -22.044722222222223,
        "longitude": -45.810277777777785
      }
    },
    {
      "SIGK": {
        "airport_name": "CD Guarulhos",
        "city": "GUARULHOS",
        "latitude": -22.553333333333335,
        "longitude": -45.55555555555556
      }
    },
    {
      "SWPW": {
        "airport_name": "CEA-Caçapava",
        "city": "CAÇAPAVA",
        "latitude": -22.87333333333333,
        "longitude": -44.33722222222222
      }
    },
    {
      "SNSK": {
        "airport_name": "Central Ferraz",
        "city": "HERCULÂNDIA",
        "latitude": -20.13111111111111,
        "longitude": -49.69111111111111
      }
    },
    {
      "SJZY": {
        "airport_name": "Centro Administrativo Rio Negro",
        "city": "BARUERI",
        "latitude": -22.499444444444446,
        "longitude": -45.15138888888889
      }
    },
    {
      "SDJK": {
        "airport_name": "Centro Empresarial Araguaia",
        "city": "BARUERI",
        "latitude": -22.498055555555556,
        "longitude": -45.158055555555556
      }
    },
    {
      "SSQY": {
        "airport_name": "Centro Empresarial de São Paulo",
        "city": "SÃO PAULO",
        "latitude": -22.34888888888889,
        "longitude": -45.27222222222222
      }
    },
    {
      "SDUI": {
        "airport_name": "Centro Empresarial Iudice",
        "city": "SÃO PAULO",
        "latitude": -22.48638888888889,
        "longitude": -45.30527777777778
      }
    },
    {
      "SDFO": {
        "airport_name": "Centro Gráfico - Folha",
        "city": "SANTANA DE PARNAÍBA",
        "latitude": -22.53361111111111,
        "longitude": -45.13944444444444
      }
    },
    {
      "SDOI": {
        "airport_name": "Centro Nacional de Pára-Quedismo",
        "city": "BOITUVA",
        "latitude": -22.701944444444443,
        "longitude": -46.30805555555556
      }
    },
    {
      "SDG6": {
        "airport_name": "Centro Tecnológico da Marinha em São Paulo - ARAMAR",
        "city": "SOROCABA",
        "latitude": -22.6025,
        "longitude": -71.98083333333334
      }
    },
    {
      "SWUF": {
        "airport_name": "Cervejaria Petrópolis",
        "city": "BOITUVA",
        "latitude": -22.741944444444446,
        "longitude": -46.339444444444446
      }
    },
    {
      "SDHT": {
        "airport_name": "Cetenco Plaza - Torre Norte",
        "city": "SÃO PAULO",
        "latitude": -22.44111111111111,
        "longitude": -45.3425
      }
    },
    {
      "SJ26": {
        "airport_name": "Chácara Messias",
        "city": "SANTA ISABEL",
        "latitude": -22.72138888888889,
        "longitude": -45.74638888888889
      }
    },
    {
      "SSMQ": {
        "airport_name": "Chácara Monte Alegre",
        "city": "MONTE ALEGRE DO SUL",
        "latitude": -21.31,
        "longitude": -45.31944444444445
      }
    },
    {
      "SNBA": {
        "airport_name": "Chafei Amsei",
        "city": "BARRETOS",
        "latitude": -19.414444444444445,
        "longitude": -47.40416666666666
      }
    },
    {
      "SSXL": {
        "airport_name": "Chendel",
        "city": "ATIBAIA",
        "latitude": -22.834722222222222,
        "longitude": -45.425
      }
    },
    {
      "SDQQ": {
        "airport_name": "Cia. Agrícola Quatá",
        "city": "QUATÁ",
        "latitude": -21.714444444444442,
        "longitude": -49.36055555555556
      }
    },
    {
      "SIVX": {
        "airport_name": "Cia. Brasileira de Alumínio",
        "city": "ALUMÍNIO",
        "latitude": -22.483333333333334,
        "longitude": -46.733333333333334
      }
    },
    {
      "SIES": {
        "airport_name": "Ciclade",
        "city": "SÃO SEBASTIÃO",
        "latitude": -22.23111111111111,
        "longitude": -44.36611111111111
      }
    },
    {
      "SDIA": {
        "airport_name": "Cidade",
        "city": "SÃO PAULO",
        "latitude": -22.454166666666666,
        "longitude": -45.3675
      }
    },
    {
      "SDCV": {
        "airport_name": "Citibank",
        "city": "SÃO PAULO",
        "latitude": -22.435,
        "longitude": -45.34638888888889
      }
    },
    {
      "SDKI": {
        "airport_name": "CL",
        "city": "SÃO JOSÉ DOS CAMPOS",
        "latitude": -22.775000000000002,
        "longitude": -44.09305555555556
      }
    },
    {
      "SDF7": {
        "airport_name": "Clube Aeronáutico Avaré",
        "city": "AVARÉ",
        "latitude": -22.758888888888887,
        "longitude": -47.015
      }
    },
    {
      "SIVQ": {
        "airport_name": "Clube de Voo Aeroquadra",
        "city": "QUADRA",
        "latitude": -22.685277777777777,
        "longitude": -47.97
      }
    },
    {
      "SWVN": {
        "airport_name": "Clube de Voo Fazenda Novo Horizonte",
        "city": "ITU",
        "latitude": -22.826944444444443,
        "longitude": -46.588055555555556
      }
    },
    {
      "SJL9": {
        "airport_name": "Clube de Vôo Fazenda Royal",
        "city": "ITAPETININGA",
        "latitude": -22.496944444444445,
        "longitude": -47.99944444444444
      }
    },
    {
      "SWCV": {
        "airport_name": "CMA",
        "city": "BARRETOS",
        "latitude": -19.43027777777778,
        "longitude": -47.30666666666667
      }
    },
    {
      "SJSW": {
        "airport_name": "Colinas Shopping",
        "city": "SÃO JOSÉ DOS CAMPOS",
        "latitude": -22.794722222222223,
        "longitude": -44.091944444444444
      }
    },
    {
      "SBJD": {
        "airport_name": "Comandante Rolim Adolfo Amaro",
        "city": "JUNDIAÍ",
        "latitude": -22.81833333333333,
        "longitude": -45.05638888888889,
        "airspace_class": "CLASS C"
      }
    },
    {
      "SJCA": {
        "airport_name": "Comandante Vittório Bonomi",
        "city": "MOCOCA",
        "latitude": -20.468333333333334,
        "longitude": -46.95305555555556
      }
    },
    {
      "SI8S": {
        "airport_name": "Comando G8",
        "city": "SÃO PAULO",
        "latitude": -22.527222222222225,
        "longitude": -45.36027777777778
      }
    },
    {
      "SJCL": {
        "airport_name": "Comando Piloto",
        "city": "SÃO JOSÉ DO RIO PARDO",
        "latitude": -20.383611111111108,
        "longitude": -45.124722222222225
      }
    },
    {
      "SIYB": {
        "airport_name": "Comercial Aquidabã",
        "city": "CAMPINAS",
        "latitude": -21.08888888888889,
        "longitude": -46.945
      }
    },
    {
      "SJWC": {
        "airport_name": "Cometa Vila Maria",
        "city": "SÃO PAULO",
        "latitude": -22.48277777777778,
        "longitude": -45.42083333333333
      }
    },
    {
      "SI74": {
        "airport_name": "Company",
        "city": "SÃO PAULO",
        "latitude": -22.427222222222223,
        "longitude": -45.29666666666667
      }
    },
    {
      "SDVU": {
        "airport_name": "Conde Francisco Matarazzo",
        "city": "SÃO PAULO",
        "latitude": -22.436666666666667,
        "longitude": -45.34722222222222
      }
    },
    {
      "SNDD": {
        "airport_name": "Condomínio Aeronáutico Santos Dumont",
        "city": "ELIAS FAUSTO",
        "latitude": -22.931944444444444,
        "longitude": -46.676111111111105
      }
    },
    {
      "SDKD": {
        "airport_name": "Condomínio América Business Park",
        "city": "SÃO PAULO",
        "latitude": -22.38138888888889,
        "longitude": -45.29694444444444
      }
    },
    {
      "SDNP": {
        "airport_name": "Condomínio Conde Matarazzo",
        "city": "SÃO PAULO",
        "latitude": -22.452222222222222,
        "longitude": -45.36222222222222
      }
    },
    {
      "SIYZ": {
        "airport_name": "Condomínio Edifício Berrini 1681",
        "city": "SÃO PAULO",
        "latitude": -22.38861111111111,
        "longitude": -45.30555555555556
      }
    },
    {
      "SIGO": {
        "airport_name": "Condomínio Edifício Paulista Plaza",
        "city": "SÃO PAULO",
        "latitude": -22.42638888888889,
        "longitude": -45.35805555555556
      }
    },
    {
      "SDFW": {
        "airport_name": "Condomínio Edifício San Paolo",
        "city": "SÃO PAULO",
        "latitude": -22.425,
        "longitude": -45.312222222222225
      }
    },
    {
      "SDEL": {
        "airport_name": "Condomínio Edifício Spazio JK",
        "city": "SÃO PAULO",
        "latitude": -22.40888888888889,
        "longitude": -45.31444444444445
      }
    },
    {
      "SSIZ": {
        "airport_name": "Condomínio Fazenda da Grama",
        "city": "ITUPEVA",
        "latitude": -22.940833333333334,
        "longitude": -46.9375
      }
    },
    {
      "SJE9": {
        "airport_name": "Condomínio Global Tech",
        "city": "CAMPINAS",
        "latitude": -21.188888888888886,
        "longitude": -46.95111111111111
      }
    },
    {
      "SDAL": {
        "airport_name": "Condomínio Guaporé II",
        "city": "RIBEIRÃO PRETO",
        "latitude": -20.773333333333333,
        "longitude": -46.217777777777776
      }
    },
    {
      "SIRU": {
        "airport_name": "Condomínio Trio Ribeirão",
        "city": "RIBEIRÃO PRETO",
        "latitude": -20.800277777777776,
        "longitude": -46.1925
      }
    },
    {
      "SJCD": {
        "airport_name": "Condomínio Vitassay",
        "city": "BOITUVA",
        "latitude": -22.6925,
        "longitude": -46.33638888888889
      }
    },
    {
      "SBSP": {
        "airport_name": "Congonhas - Deputado Freitas Nobre",
        "city": "SÃO PAULO",
        "latitude": -22.37388888888889,
        "longitude": -45.343611111111116,
        "airspace_class": "CLASS A"
      }
    },
    {
      "SWHX": {
        "airport_name": "Conjunto Hospitalar do Mandaqui",
        "city": "SÃO PAULO",
        "latitude": -22.515,
        "longitude": -45.36944444444445
      }
    },
    {
      "SNKP": {
        "airport_name": "Conquista do Pontal",
        "city": "MIRANTE DO PARANAPANEMA",
        "latitude": -21.616111111111113,
        "longitude": -51.89194444444444
      }
    },
    {
      "SSCS": {
        "airport_name": "Continental Square",
        "city": "SÃO PAULO",
        "latitude": -22.40416666666667,
        "longitude": -45.31611111111111
      }
    },
    {
      "SDMN": {
        "airport_name": "Continental Tower",
        "city": "SÃO PAULO",
        "latitude": -22.398333333333333,
        "longitude": -45.30083333333334
      }
    },
    {
      "SIZE": {
        "airport_name": "Coppersteel Bimetálicos",
        "city": "CAMPINAS",
        "latitude": -21.003333333333334,
        "longitude": -46.87638888888889
      }
    },
    {
      "SIER": {
        "airport_name": "Cosan",
        "city": "PIRACICABA",
        "latitude": -21.366944444444442,
        "longitude": -46.31305555555556
      }
    },
    {
      "SWOJ": {
        "airport_name": "Coudelaria Rocas do Vouga",
        "city": "ITU",
        "latitude": -22.701944444444443,
        "longitude": -46.59722222222222
      }
    },
    {
      "SJUW": {
        "airport_name": "CPFL Sede",
        "city": "CAMPINAS",
        "latitude": -21.14222222222222,
        "longitude": -46.955000000000005
      }
    },
    {
      "SDVV": {
        "airport_name": "Cragea-Suzano",
        "city": "SUZANO",
        "latitude": -22.358055555555556,
        "longitude": -45.67777777777778
      }
    },
    {
      "SSXT": {
        "airport_name": "Cristal",
        "city": "BORÁ",
        "latitude": -21.817777777777778,
        "longitude": -49.50694444444444
      }
    },
    {
      "SJOQ": {
        "airport_name": "Cristália",
        "city": "ITAPIRA",
        "latitude": -21.532222222222224,
        "longitude": -45.2825
      }
    },
    {
      "SDTM": {
        "airport_name": "Crystal Tower",
        "city": "BARUERI",
        "latitude": -22.506666666666664,
        "longitude": -45.14722222222222
      }
    },
    {
      "SWDH": {
        "airport_name": "Damha Golfe",
        "city": "SÃO CARLOS",
        "latitude": -20.04888888888889,
        "longitude": -46.10194444444444
      }
    },
    {
      "SDG9": {
        "airport_name": "Delegacia da Capitania dos Portos em São Sebastião",
        "city": "SÃO SEBASTIÃO",
        "latitude": -22.19333333333333,
        "longitude": -44.60027777777778
      }
    },
    {
      "SIDL": {
        "airport_name": "Deus é Amor",
        "city": "SÃO PAULO",
        "latitude": -22.444166666666668,
        "longitude": -45.375277777777775
      }
    },
    {
      "SIEU": {
        "airport_name": "Diamante",
        "city": "JAÚ",
        "latitude": -21.626666666666665,
        "longitude": -47.30694444444445
      }
    },
    {
      "SIHD": {
        "airport_name": "Divena",
        "city": "SÃO PAULO",
        "latitude": -22.401666666666667,
        "longitude": -45.37777777777778
      }
    },
    {
      "SWWD": {
        "airport_name": "Dom Pedro Business Park",
        "city": "ATIBAIA",
        "latitude": -22.949444444444445,
        "longitude": -45.327222222222225
      }
    },
    {
      "SDVG": {
        "airport_name": "Domingos Pignatari",
        "city": "VOTUPORANGA",
        "latitude": -19.54277777777778,
        "longitude": -49.9975
      }
    },
    {
      "SSWH": {
        "airport_name": "Dr. Emílio Fehr",
        "city": "SÃO CARLOS",
        "latitude": -20.093333333333334,
        "longitude": -46.178888888888885
      }
    },
    {
      "SIII": {
        "airport_name": "Dr. Heráclito da Motta Luiz",
        "city": "GUAÍRA",
        "latitude": -19.56694444444444,
        "longitude": -47.775555555555556
      }
    },
    {
      "SDJA": {
        "airport_name": "Dr. José Augusto de Arruda Botelho",
        "city": "ITIRAPINA",
        "latitude": -21.80527777777778,
        "longitude": -46.13805555555555
      }
    },
    {
      "SDDR": {
        "airport_name": "Dracena",
        "city": "DRACENA",
        "latitude": -20.539444444444445,
        "longitude": -50.393055555555556
      }
    },
    {
      "SIBS": {
        "airport_name": "E-Business Bosque",
        "city": "SÃO PAULO",
        "latitude": -22.488055555555555,
        "longitude": -45.28972222222222
      }
    },
    {
      "SJWZ": {
        "airport_name": "E-Tower",
        "city": "SÃO PAULO",
        "latitude": -22.406111111111112,
        "longitude": -45.30972222222223
      }
    },
    {
      "SDEF": {
        "airport_name": "Eco Fly",
        "city": "FERRAZ DE VASCONCELOS",
        "latitude": -22.46777777777778,
        "longitude": -45.61388888888889
      }
    },
    {
      "SNRF": {
        "airport_name": "Ecofabril",
        "city": "JUNDIAÍ",
        "latitude": -22.824444444444442,
        "longitude": -45.06166666666667
      }
    },
    {
      "SJC8": {
        "airport_name": "Ecoforte",
        "city": "MOGI GUAÇU",
        "latitude": -21.69972222222222,
        "longitude": -45.01694444444444
      }
    },
    {
      "SJUE": {
        "airport_name": "Ecological Center",
        "city": "BARUERI",
        "latitude": -22.465,
        "longitude": -45.124722222222225
      }
    },
    {
      "SIEE": {
        "airport_name": "Ecovias Imigrantes",
        "city": "SÃO BERNARDO DO CAMPO",
        "latitude": -22.215555555555554,
        "longitude": -45.40333333333333
      }
    },
    {
      "SNZJ": {
        "airport_name": "Edifício América",
        "city": "ARARAQUARA",
        "latitude": -20.195,
        "longitude": -47.82638888888889
      }
    },
    {
      "SDTJ": {
        "airport_name": "Edifício Atrium V",
        "city": "SÃO PAULO",
        "latitude": -22.40527777777778,
        "longitude": -45.315000000000005
      }
    },
    {
      "SIBB": {
        "airport_name": "Edifício Comendador Alberto Bonfiglioli",
        "city": "SÃO PAULO",
        "latitude": -22.435555555555556,
        "longitude": -45.348055555555554
      }
    },
    {
      "SIMM": {
        "airport_name": "Edifício Corporate Park",
        "city": "SÃO PAULO",
        "latitude": -22.4125,
        "longitude": -45.32777777777778
      }
    },
    {
      "SDKT": {
        "airport_name": "Edifício Dacon",
        "city": "SÃO PAULO",
        "latitude": -22.419444444444444,
        "longitude": -45.31611111111111
      }
    },
    {
      "SIDA": {
        "airport_name": "Edifício Dakota",
        "city": "SÃO PAULO",
        "latitude": -22.405555555555555,
        "longitude": -45.316388888888895
      }
    },
    {
      "SIJF": {
        "airport_name": "Edifício Faria Lima Financial Center",
        "city": "SÃO PAULO",
        "latitude": -22.41388888888889,
        "longitude": -45.31666666666667
      }
    },
    {
      "SDEA": {
        "airport_name": "Edifício HSBC Tower",
        "city": "SÃO PAULO",
        "latitude": -22.416944444444443,
        "longitude": -45.31611111111111
      }
    },
    {
      "SNEX": {
        "airport_name": "Edifício Luxor",
        "city": "SOROCABA",
        "latitude": -22.480555555555558,
        "longitude": -46.53666666666666
      }
    },
    {
      "SDOF": {
        "airport_name": "Edifício Palladio",
        "city": "SÃO PAULO",
        "latitude": -22.40527777777778,
        "longitude": -45.31444444444445
      }
    },
    {
      "SDPB": {
        "airport_name": "Edifício Prime Business Center",
        "city": "FRANCA",
        "latitude": -19.46388888888889,
        "longitude": -46.61
      }
    },
    {
      "SIYU": {
        "airport_name": "Edifício Ronaldo Sampaio Ferreira",
        "city": "SÃO PAULO",
        "latitude": -22.398333333333333,
        "longitude": -45.30805555555556
      }
    },
    {
      "SDHY": {
        "airport_name": "Edifício São Luís Gonzaga",
        "city": "SÃO PAULO",
        "latitude": -22.44333333333333,
        "longitude": -45.33888888888889
      }
    },
    {
      "SDIW": {
        "airport_name": "Edifício São Paulo Trade Building",
        "city": "SÃO PAULO",
        "latitude": -22.405833333333334,
        "longitude": -45.31055555555556
      }
    },
    {
      "SNEO": {
        "airport_name": "Edifício Sequóia",
        "city": "RIBEIRÃO PRETO",
        "latitude": -20.781111111111112,
        "longitude": -46.19555555555556
      }
    },
    {
      "SJIG": {
        "airport_name": "Edifício Times Square Business",
        "city": "RIBEIRÃO PRETO",
        "latitude": -20.79361111111111,
        "longitude": -46.18944444444445
      }
    },
    {
      "SJBI": {
        "airport_name": "Edra",
        "city": "IPEÚNA",
        "latitude": -21.559722222222224,
        "longitude": -46.30166666666667
      }
    },
    {
      "SJXK": {
        "airport_name": "Eldorado",
        "city": "SÃO PAULO",
        "latitude": -22.426944444444445,
        "longitude": -45.3025
      }
    },
    {
      "SNAQ": {
        "airport_name": "Elisa",
        "city": "JARINU",
        "latitude": -22.845277777777778,
        "longitude": -45.219722222222224
      }
    },
    {
      "SIIG": {
        "airport_name": "Elisa Camargo de Arruda Botelho",
        "city": "RANCHARIA",
        "latitude": -21.638888888888886,
        "longitude": -50.89861111111111
      }
    },
    {
      "SNRE": {
        "airport_name": "Ellece",
        "city": "GUARULHOS",
        "latitude": -22.52777777777778,
        "longitude": -45.56722222222223
      }
    },
    {
      "SDEU": {
        "airport_name": "Empresarial Anhanguera",
        "city": "CAJAMAR",
        "latitude": -22.615277777777777,
        "longitude": -45.16833333333333
      }
    },
    {
      "SDOP": {
        "airport_name": "EMS Sigma Pharma 2",
        "city": "HORTOLÂNDIA",
        "latitude": -21.104166666666668,
        "longitude": -46.809444444444445
      }
    },
    {
      "SDXT": {
        "airport_name": "Encontro das Águas",
        "city": "SÃO MANUEL",
        "latitude": -21.384999999999998,
        "longitude": -47.61222222222222
      }
    },
    {
      "SNPE": {
        "airport_name": "Engenho DÁgua",
        "city": "ILHABELA",
        "latitude": -22.207777777777775,
        "longitude": -44.64111111111111
      }
    },
    {
      "SWEG": {
        "airport_name": "Engevix",
        "city": "BARUERI",
        "latitude": -22.4975,
        "longitude": -45.17222222222222
      }
    },
    {
      "SIFP": {
        "airport_name": "EPCCO",
        "city": "REGISTRO",
        "latitude": -23.47527777777778,
        "longitude": -46.14944444444444
      }
    },
    {
      "SIKC": {
        "airport_name": "Erik",
        "city": "MAIRIPORÃ",
        "latitude": -22.700833333333332,
        "longitude": -45.403055555555554
      }
    },
    {
      "SDUB": {
        "airport_name": "Estadual Gastão Madeira",
        "city": "UBATUBA",
        "latitude": -22.558611111111112,
        "longitude": -44.92388888888888
      }
    },
    {
      "SNFK": {
        "airport_name": "Estância Colorado",
        "city": "SALES OLIVEIRA",
        "latitude": -19.24138888888889,
        "longitude": -46.13666666666666
      }
    },
    {
      "SNOI": {
        "airport_name": "Estância Irmãos Martins",
        "city": "TUPÃ",
        "latitude": -21.995,
        "longitude": -49.51083333333333
      }
    },
    {
      "SJAM": {
        "airport_name": "Estância Lajota",
        "city": "MAIRIPORÃ",
        "latitude": -22.751666666666665,
        "longitude": -45.428888888888885
      }
    },
    {
      "SDEM": {
        "airport_name": "Estância Machado",
        "city": "ÁLVARES MACHADO",
        "latitude": -21.89472222222222,
        "longitude": -50.54555555555555
      }
    },
    {
      "SD2I": {
        "airport_name": "Estância Rancharia Aviação",
        "city": "RANCHARIA",
        "latitude": -21.824444444444442,
        "longitude": -49.091944444444444
      }
    },
    {
      "SDGD": {
        "airport_name": "Eucatex-Botucatú",
        "city": "BOTUCATU",
        "latitude": -21.00583333333333,
        "longitude": -47.43222222222222
      }
    },
    {
      "SJEY": {
        "airport_name": "Eurofarma Laboratórios S.A",
        "city": "ITAPEVI",
        "latitude": -22.48111111111111,
        "longitude": -45.03916666666667
      }
    },
    {
      "SDEG": {
        "airport_name": "Evolution Corporate",
        "city": "BARUERI",
        "latitude": -22.495555555555555,
        "longitude": -45.14888888888889
      }
    },
    {
      "SJBO": {
        "airport_name": "EZ Towers B",
        "city": "SÃO PAULO",
        "latitude": -22.372777777777777,
        "longitude": -45.29833333333333
      }
    },
    {
      "SJOZ": {
        "airport_name": "Faria Lima Square",
        "city": "SÃO PAULO",
        "latitude": -22.41138888888889,
        "longitude": -45.31722222222223
      }
    },
    {
      "SNRN": {
        "airport_name": "Fazenda 20 de Maio",
        "city": "GETULINA",
        "latitude": -20.19111111111111,
        "longitude": -48.028888888888886
      }
    },
    {
      "SWAM": {
        "airport_name": "Fazenda Agropecuária Gomes",
        "city": "TAQUARITUBA",
        "latitude": -22.351944444444445,
        "longitude": -48.849722222222226
      }
    },
    {
      "SD2W": {
        "airport_name": "Fazenda Aguapeí",
        "city": "VALPARAÍSO",
        "latitude": -20.78777777777778,
        "longitude": -49.05555555555556
      }
    },
    {
      "SDFH": {
        "airport_name": "Fazenda Amália",
        "city": "SANTA ROSA DE VITERBO",
        "latitude": -20.555,
        "longitude": -46.628055555555555
      }
    },
    {
      "SDGY": {
        "airport_name": "Fazenda Anhangaí",
        "city": "ARAÇATUBA",
        "latitude": -19.072499999999998,
        "longitude": -49.25694444444444
      }
    },
    {
      "SDZU": {
        "airport_name": "Fazenda Anhumas",
        "city": "MARABÁ PAULISTA",
        "latitude": -21.8775,
        "longitude": -51.80222222222223
      }
    },
    {
      "SD9X": {
        "airport_name": "Fazenda Aparecida",
        "city": "BEBEDOURO",
        "latitude": -20.960277777777776,
        "longitude": -47.4825
      }
    },
    {
      "SNAF": {
        "airport_name": "Fazenda Aparecida",
        "city": "PENÁPOLIS",
        "latitude": -20.501944444444444,
        "longitude": -49.89888888888889
      }
    },
    {
      "SD8T": {
        "airport_name": "Fazenda Araras",
        "city": "ITAÍ",
        "latitude": -22.690555555555555,
        "longitude": -48.927499999999995
      }
    },
    {
      "SIYE": {
        "airport_name": "Fazenda Barra do Agudo",
        "city": "MORRO AGUDO",
        "latitude": -19.189722222222223,
        "longitude": -47.77722222222222
      }
    },
    {
      "SDJ8": {
        "airport_name": "Fazenda Barra Longa",
        "city": "BOTUCATU",
        "latitude": -21.16861111111111,
        "longitude": -47.61555555555556
      }
    },
    {
      "SDWN": {
        "airport_name": "Fazenda Barreiro Grande",
        "city": "COLÔMBIA",
        "latitude": -19.651944444444446,
        "longitude": -47.224722222222226
      }
    },
    {
      "SIWW": {
        "airport_name": "Fazenda Barreiros",
        "city": "ILHABELA",
        "latitude": -22.234444444444446,
        "longitude": -44.65222222222222
      }
    },
    {
      "SSQB": {
        "airport_name": "Fazenda Barrinha",
        "city": "ESPÍRITO SANTO DO PINHAL",
        "latitude": -21.876666666666665,
        "longitude": -45.20166666666667
      }
    },
    {
      "SJWB": {
        "airport_name": "Fazenda Bartira",
        "city": "RANCHARIA",
        "latitude": -21.83527777777778,
        "longitude": -49.035
      }
    },
    {
      "SSYB": {
        "airport_name": "Fazenda Bela Manhã",
        "city": "SANTA CLARA DOESTE",
        "latitude": -19.982222222222223,
        "longitude": -49.1075
      }
    },
    {
      "SITM": {
        "airport_name": "Fazenda Bela Vista",
        "city": "PANORAMA",
        "latitude": -20.5825,
        "longitude": -50.105555555555554
      }
    },
    {
      "SN2X": {
        "airport_name": "Fazenda Belvedere",
        "city": "TEJUPÁ",
        "latitude": -22.7125,
        "longitude": -48.75861111111111
      }
    },
    {
      "SSMV": {
        "airport_name": "Fazenda Boa Vista",
        "city": "PIRASSUNUNGA",
        "latitude": -21.955277777777777,
        "longitude": -46.440000000000005
      }
    },
    {
      "SNTK": {
        "airport_name": "Fazenda Bom Retiro",
        "city": "QUINTANA",
        "latitude": -21.823055555555555,
        "longitude": -49.61138888888889
      }
    },
    {
      "SIBC": {
        "airport_name": "Fazenda Bonança",
        "city": "PEREIRA BARRETO",
        "latitude": -19.32361111111111,
        "longitude": -50.969166666666666
      }
    },
    {
      "SJNI": {
        "airport_name": "Fazenda Buriti",
        "city": "VALENTIM GENTIL",
        "latitude": -19.520000000000003,
        "longitude": -49.8125
      }
    },
    {
      "SDMY": {
        "airport_name": "Fazenda Cambuhy",
        "city": "MATÃO",
        "latitude": -20.36722222222222,
        "longitude": -47.52055555555555
      }
    },
    {
      "SDCL": {
        "airport_name": "Fazenda Campo Alegre",
        "city": "CERQUEIRA CÉSAR",
        "latitude": -22.845833333333335,
        "longitude": -48.79111111111111
      }
    },
    {
      "SICC": {
        "airport_name": "Fazenda Campo Alto",
        "city": "ARARAS",
        "latitude": -21.61111111111111,
        "longitude": -46.71333333333334
      }
    },
    {
      "SDKO": {
        "airport_name": "Fazenda Campo Grande",
        "city": "COLÔMBIA",
        "latitude": -19.74222222222222,
        "longitude": -47.21138888888889
      }
    },
    {
      "SDVA": {
        "airport_name": "Fazenda Campo Vitória",
        "city": "VARGEM GRANDE DO SUL",
        "latitude": -20.157222222222224,
        "longitude": -45.066944444444445
      }
    },
    {
      "SWNY": {
        "airport_name": "Fazenda Canaã",
        "city": "LUÍS ANTÔNIO",
        "latitude": -20.465555555555554,
        "longitude": -46.31388888888889
      }
    },
    {
      "SDRU": {
        "airport_name": "Fazenda Caramuru",
        "city": "INÚBIA PAULISTA",
        "latitude": -20.306666666666665,
        "longitude": -49.06416666666667
      }
    },
    {
      "SDTO": {
        "airport_name": "Fazenda Cataco",
        "city": "UBARANA",
        "latitude": -20.744722222222222,
        "longitude": -48.20527777777778
      }
    },
    {
      "SWQI": {
        "airport_name": "Fazenda Caturama",
        "city": "ZACARIAS",
        "latitude": -20.886388888888888,
        "longitude": -49.961111111111116
      }
    },
    {
      "SDIP": {
        "airport_name": "Fazenda Centro de Vôo a Vela Ipuã",
        "city": "CAÇAPAVA",
        "latitude": -22.956666666666663,
        "longitude": -44.224444444444444
      }
    },
    {
      "SJAW": {
        "airport_name": "Fazenda Citrícola",
        "city": "GAVIÃO PEIXOTO",
        "latitude": -20.275555555555556,
        "longitude": -47.62277777777778
      }
    },
    {
      "SDFC": {
        "airport_name": "Fazenda Constância",
        "city": "ALTAIR",
        "latitude": -19.51111111111111,
        "longitude": -48.81111111111112
      }
    },
    {
      "SWBP": {
        "airport_name": "Fazenda Continental",
        "city": "COLÔMBIA",
        "latitude": -19.758888888888887,
        "longitude": -47.34166666666667
      }
    },
    {
      "SDRA": {
        "airport_name": "Fazenda das Represas",
        "city": "SÃO MIGUEL ARCANJO",
        "latitude": -22.122777777777777,
        "longitude": -47.94916666666667
      }
    },
    {
      "SJ9Z": {
        "airport_name": "Fazenda Dois Irmãos",
        "city": "TAQUARITUBA",
        "latitude": -22.365555555555556,
        "longitude": -48.85472222222222
      }
    },
    {
      "SIGL": {
        "airport_name": "Fazenda Dumont - Chiquinho Ribeiro",
        "city": "BRAGANÇA PAULISTA",
        "latitude": -22.993333333333332,
        "longitude": -45.35333333333333
      }
    },
    {
      "SDER": {
        "airport_name": "Fazenda Entre Rios",
        "city": "SUD MENNUCCI",
        "latitude": -19.234444444444446,
        "longitude": -49.144999999999996
      }
    },
    {
      "SDEO": {
        "airport_name": "Fazenda Entre Rios",
        "city": "IBITINGA",
        "latitude": -20.121388888888887,
        "longitude": -47.340555555555554
      }
    },
    {
      "SIHP": {
        "airport_name": "Fazenda Esperança",
        "city": "ITAPEVA",
        "latitude": -22.1325,
        "longitude": -47.19416666666667
      }
    },
    {
      "SJQJ": {
        "airport_name": "Fazenda Fortaleza",
        "city": "JABORANDI",
        "latitude": -19.40416666666667,
        "longitude": -47.62722222222222
      }
    },
    {
      "SSQK": {
        "airport_name": "Fazenda Gávea",
        "city": "CERQUEIRA CÉSAR",
        "latitude": -22.775000000000002,
        "longitude": -48.82083333333333
      }
    },
    {
      "SJOW": {
        "airport_name": "Fazenda Guadalupe",
        "city": "SANTO ANTÔNIO DO ARACANGUÁ",
        "latitude": -19.016111111111112,
        "longitude": -49.47416666666667
      }
    },
    {
      "SJRS": {
        "airport_name": "Fazenda Guanabara",
        "city": "JUNQUEIRÓPOLIS",
        "latitude": -20.65638888888889,
        "longitude": -50.59666666666667
      }
    },
    {
      "SIOB": {
        "airport_name": "Fazenda Guanabara",
        "city": "ANDRADINA",
        "latitude": -19.180833333333332,
        "longitude": -50.731944444444444
      }
    },
    {
      "SDEJ": {
        "airport_name": "Fazenda Guará do Pinhal",
        "city": "ITAPETININGA",
        "latitude": -22.33416666666667,
        "longitude": -47.92722222222222
      }
    },
    {
      "SDGI": {
        "airport_name": "Fazenda Guariroba S/A",
        "city": "CAMPINAS",
        "latitude": -21.077222222222222,
        "longitude": -45.09305555555556
      }
    },
    {
      "SJE2": {
        "airport_name": "Fazenda Gurucaia",
        "city": "GUARARAPES",
        "latitude": -20.505555555555553,
        "longitude": -49.26472222222222
      }
    },
    {
      "SDHE": {
        "airport_name": "Fazenda Herdade",
        "city": "ITAPIRA",
        "latitude": -21.508333333333333,
        "longitude": -45.15694444444444
      }
    },
    {
      "SIEA": {
        "airport_name": "Fazenda Ibiporã",
        "city": "GUARARAPES",
        "latitude": -20.53361111111111,
        "longitude": -49.20138888888889
      }
    },
    {
      "SWXY": {
        "airport_name": "Fazenda Igurê",
        "city": "GÁLIA",
        "latitude": -21.748333333333335,
        "longitude": -48.394444444444446
      }
    },
    {
      "SDIH": {
        "airport_name": "Fazenda Irohy",
        "city": "BIRITIBA-MIRIM",
        "latitude": -22.434444444444445,
        "longitude": -45.93055555555555
      }
    },
    {
      "SDW3": {
        "airport_name": "Fazenda Itanguá",
        "city": "ITAPEVA",
        "latitude": -23.970277777777778,
        "longitude": -47.026111111111106
      }
    },
    {
      "SWHU": {
        "airport_name": "Fazenda Izaura - Usina Cocal",
        "city": "RANCHARIA",
        "latitude": -21.493333333333332,
        "longitude": -49.13472222222222
      }
    },
    {
      "SSRW": {
        "airport_name": "Fazenda J Campos",
        "city": "PORANGABA",
        "latitude": -22.796944444444446,
        "longitude": -47.89527777777778
      }
    },
    {
      "SIJG": {
        "airport_name": "Fazenda Jaguaretê",
        "city": "GUARARAPES",
        "latitude": -20.5575,
        "longitude": -49.274166666666666
      }
    },
    {
      "SWAN": {
        "airport_name": "Fazenda Jamaica",
        "city": "POMPÉIA",
        "latitude": -21.815555555555555,
        "longitude": -49.724722222222226
      }
    },
    {
      "SDJF": {
        "airport_name": "Fazenda Jequitibá",
        "city": "BURI",
        "latitude": -22.15388888888889,
        "longitude": -47.5525
      }
    },
    {
      "SJYY": {
        "airport_name": "Fazenda Jequitibá",
        "city": "PORTO FELIZ",
        "latitude": -22.746388888888887,
        "longitude": -46.39388888888889
      }
    },
    {
      "SDHC": {
        "airport_name": "Fazenda Koga",
        "city": "GETULINA",
        "latitude": -20.13,
        "longitude": -48.01916666666666
      }
    },
    {
      "SIZL": {
        "airport_name": "Fazenda Lagoa",
        "city": "SÃO PEDRO DO TURVO",
        "latitude": -21.252222222222223,
        "longitude": -48.155277777777776
      }
    },
    {
      "SSYK": {
        "airport_name": "Fazenda Mandaçaia",
        "city": "BURI",
        "latitude": -22.37611111111111,
        "longitude": -47.50722222222222
      }
    },
    {
      "SBQZ": {
        "airport_name": "Fazenda Mariane",
        "city": "BROTAS",
        "latitude": -21.759722222222223,
        "longitude": -47.68083333333333
      }
    },
    {
      "SDA4": {
        "airport_name": "Fazenda Maristela",
        "city": "TREMEMBÉ",
        "latitude": -21.045277777777777,
        "longitude": -44.39611111111111
      }
    },
    {
      "SSUK": {
        "airport_name": "Fazenda Menina",
        "city": "ITAPURA",
        "latitude": -19.36,
        "longitude": -50.52333333333333
      }
    },
    {
      "SDMV": {
        "airport_name": "Fazenda Morro Vermelho",
        "city": "JAÚ",
        "latitude": -21.725555555555555,
        "longitude": -47.39583333333333
      }
    },
    {
      "SDOR": {
        "airport_name": "Fazenda Mosquito",
        "city": "ORLÂNDIA",
        "latitude": -19.252499999999998,
        "longitude": -46.11055555555556
      }
    },
    {
      "SDFJ": {
        "airport_name": "Fazenda Murungaba",
        "city": "TIETÊ",
        "latitude": -21.04861111111111,
        "longitude": -46.24
      }
    },
    {
      "SSNF": {
        "airport_name": "Fazenda Naisa",
        "city": "COLÔMBIA",
        "latitude": -19.670277777777777,
        "longitude": -47.190000000000005
      }
    },
    {
      "SINK": {
        "airport_name": "Fazenda Negrinha",
        "city": "PARAPUÃ",
        "latitude": -20.12527777777778,
        "longitude": -49.12694444444445
      }
    },
    {
      "SDSM": {
        "airport_name": "Fazenda Nossa Senhora da Conceição",
        "city": "SÃO MANUEL",
        "latitude": -21.241666666666667,
        "longitude": -47.45611111111111
      }
    },
    {
      "SJNA": {
        "airport_name": "Fazenda Nova Aliança",
        "city": "GLICÉRIO",
        "latitude": -20.671666666666667,
        "longitude": -49.80694444444445
      }
    },
    {
      "SDND": {
        "airport_name": "Fazenda Nova Damasco",
        "city": "NARANDIBA",
        "latitude": -21.51777777777778,
        "longitude": -50.47027777777778
      }
    },
    {
      "SDQG": {
        "airport_name": "Fazenda Nova Floresta",
        "city": "CAIABU",
        "latitude": -20.107777777777777,
        "longitude": -50.82194444444445
      }
    },
    {
      "SNPL": {
        "airport_name": "Fazenda Pacuruxu",
        "city": "SANTA MERCEDES",
        "latitude": -20.74361111111111,
        "longitude": -50.27111111111111
      }
    },
    {
      "SJH7": {
        "airport_name": "Fazenda Paineiras",
        "city": "ARANDU",
        "latitude": -22.85638888888889,
        "longitude": -48.970555555555556
      }
    },
    {
      "SDDX": {
        "airport_name": "Fazenda Paiquerê",
        "city": "POPULINA",
        "latitude": -18.115833333333335,
        "longitude": -49.495555555555555
      }
    },
    {
      "SDAF": {
        "airport_name": "Fazenda Palmeiras",
        "city": "ANALÂNDIA",
        "latitude": -21.843333333333334,
        "longitude": -46.280833333333334
      }
    },
    {
      "SIQF": {
        "airport_name": "Fazenda Palmital",
        "city": "MORRO AGUDO",
        "latitude": -19.30388888888889,
        "longitude": -47.713055555555556
      }
    },
    {
      "SDCW": {
        "airport_name": "Fazenda Paloma",
        "city": "COLÔMBIA",
        "latitude": -19.67861111111111,
        "longitude": -47.16638888888889
      }
    },
    {
      "SSEF": {
        "airport_name": "Fazenda Passaredo",
        "city": "CAJURU",
        "latitude": -20.673055555555557,
        "longitude": -46.76888888888889
      }
    },
    {
      "SNKA": {
        "airport_name": "Fazenda Perto D´água",
        "city": "AVARÉ",
        "latitude": -22.746111111111112,
        "longitude": -47.0925
      }
    },
    {
      "SWOX": {
        "airport_name": "Fazenda Pixoxó",
        "city": "SÃO CARLOS",
        "latitude": -20.220000000000002,
        "longitude": -46.117222222222225
      }
    },
    {
      "SDFU": {
        "airport_name": "Fazenda Ponte Funda",
        "city": "PRESIDENTE EPITÁCIO",
        "latitude": -20.129444444444445,
        "longitude": -51.83694444444445
      }
    },
    {
      "SI6Y": {
        "airport_name": "Fazenda Por do Sol",
        "city": "SARUTAIÁ",
        "latitude": -22.692319444444443,
        "longitude": -48.48694444444445
      }
    },
    {
      "SI46": {
        "airport_name": "Fazenda Primavera",
        "city": "PEDREGULHO",
        "latitude": -19.85611111111111,
        "longitude": -46.44388888888889
      }
    },
    {
      "SJFQ": {
        "airport_name": "Fazenda Quatrirmãs",
        "city": "BOTUCATU",
        "latitude": -21.051111111111112,
        "longitude": -47.335
      }
    },
    {
      "SIZQ": {
        "airport_name": "Fazenda Real",
        "city": "BOTUCATU",
        "latitude": -22.96333333333333,
        "longitude": -47.558888888888895
      }
    },
    {
      "SSPZ": {
        "airport_name": "Fazenda Redenção",
        "city": "PIRACICABA",
        "latitude": -21.283333333333335,
        "longitude": -47.95111111111111
      }
    },
    {
      "SJZW": {
        "airport_name": "Fazenda Regina",
        "city": "ITATINGA",
        "latitude": -22.71333333333333,
        "longitude": -47.261944444444445
      }
    },
    {
      "SJUL": {
        "airport_name": "Fazenda Rio Pardo",
        "city": "IARAS",
        "latitude": -21.13,
        "longitude": -48.96416666666667
      }
    },
    {
      "SNYO": {
        "airport_name": "Fazenda Rio Preto",
        "city": "GUARARAPES",
        "latitude": -20.620833333333334,
        "longitude": -49.310833333333335
      }
    },
    {
      "SWAL": {
        "airport_name": "Fazenda Santa Albana",
        "city": "ITAPETININGA",
        "latitude": -22.41861111111111,
        "longitude": -47.718333333333334
      }
    },
    {
      "SJF4": {
        "airport_name": "Fazenda Santa Clara",
        "city": "RUBIÁCEA",
        "latitude": -20.694444444444443,
        "longitude": -49.242222222222225
      }
    },
    {
      "SJRO": {
        "airport_name": "Fazenda Santa Elisa",
        "city": "AURIFLAMA",
        "latitude": -19.469444444444445,
        "longitude": -49.365
      }
    },
    {
      "SNFN": {
        "airport_name": "Fazenda Santa Fé",
        "city": "JARDINÓPOLIS",
        "latitude": -19.0625,
        "longitude": -46.13194444444444
      }
    },
    {
      "SDFS": {
        "airport_name": "Fazenda Santa Gertrudes",
        "city": "DOURADO",
        "latitude": -21.907777777777778,
        "longitude": -47.652499999999996
      }
    },
    {
      "SDZH": {
        "airport_name": "Fazenda Santa Helena",
        "city": "PINDAMONHANGABA",
        "latitude": -21.109444444444446,
        "longitude": -44.50694444444444
      }
    },
    {
      "SSJN": {
        "airport_name": "Fazenda Santa Helena",
        "city": "BRAGANÇA PAULISTA",
        "latitude": -21.029444444444447,
        "longitude": -45.319722222222225
      }
    },
    {
      "SWSY": {
        "airport_name": "Fazenda Santa Inês",
        "city": "ESPÍRITO SANTO DO PINHAL",
        "latitude": -21.82333333333333,
        "longitude": -45.28472222222222
      }
    },
    {
      "SDDJ": {
        "airport_name": "Fazenda Santa Maria",
        "city": "MONÇÕES",
        "latitude": -19.150277777777777,
        "longitude": -49.91694444444444
      }
    },
    {
      "SJ9K": {
        "airport_name": "Fazenda Santa Maria",
        "city": "LAVÍNIA",
        "latitude": -20.85361111111111,
        "longitude": -50.971111111111114
      }
    },
    {
      "SIFR": {
        "airport_name": "Fazenda Santa Maria",
        "city": "CRAVINHOS",
        "latitude": -20.715,
        "longitude": -46.2425
      }
    },
    {
      "SI9O": {
        "airport_name": "Fazenda Santa Maria VIII",
        "city": "ARAÇATUBA",
        "latitude": -20.970361111111114,
        "longitude": -49.40611111111111
      }
    },
    {
      "SWTG": {
        "airport_name": "Fazenda Santa Marina",
        "city": "SANTO ANTÔNIO DO ARACANGUÁ",
        "latitude": -19.15277777777778,
        "longitude": -49.21194444444445
      }
    },
    {
      "SDST": {
        "airport_name": "Fazenda Santa Therezinha da Barra",
        "city": "DESCALVADO",
        "latitude": -20.11861111111111,
        "longitude": -46.224722222222226
      }
    },
    {
      "SDXX": {
        "airport_name": "Fazenda Santa Vitória",
        "city": "QUELUZ",
        "latitude": -21.489722222222223,
        "longitude": -43.251666666666665
      }
    },
    {
      "SIZJ": {
        "airport_name": "Fazenda Santa Zélia",
        "city": "BEBEDOURO",
        "latitude": -19.020555555555557,
        "longitude": -47.552777777777784
      }
    },
    {
      "SDRC": {
        "airport_name": "Fazenda Santana",
        "city": "RANCHARIA",
        "latitude": -21.818055555555553,
        "longitude": -49.134166666666665
      }
    },
    {
      "SITY": {
        "airport_name": "Fazenda Santapazienza",
        "city": "ITATIBA",
        "latitude": -22.93166666666667,
        "longitude": -45.17333333333333
      }
    },
    {
      "SDAN": {
        "airport_name": "Fazenda Santo Ângelo",
        "city": "BROTAS",
        "latitude": -21.754444444444445,
        "longitude": -47.742222222222225
      }
    },
    {
      "SDKR": {
        "airport_name": "Fazenda Santo Antônio",
        "city": "ARARAS",
        "latitude": -21.620555555555555,
        "longitude": -46.67361111111111
      }
    },
    {
      "SDAS": {
        "airport_name": "Fazenda Santo Antônio",
        "city": "MIRANDÓPOLIS",
        "latitude": -20.724722222222223,
        "longitude": -50.71666666666667
      }
    },
    {
      "SWPJ": {
        "airport_name": "Fazenda Santo Antônio",
        "city": "MOGI MIRIM",
        "latitude": -21.535555555555558,
        "longitude": -45.08722222222222
      }
    },
    {
      "SIFO": {
        "airport_name": "Fazenda Santo Antônio Oriçanga",
        "city": "ESTIVA GERBI",
        "latitude": -21.768055555555556,
        "longitude": -45.03055555555555
      }
    },
    {
      "SNZG": {
        "airport_name": "Fazenda São Benedito",
        "city": "CAPÃO BONITO",
        "latitude": -22.138888888888886,
        "longitude": -47.763333333333335
      }
    },
    {
      "SJUQ": {
        "airport_name": "Fazenda São Clemente",
        "city": "SÃO JOSÉ DOS CAMPOS",
        "latitude": -22.880277777777778,
        "longitude": -44.14833333333333
      }
    },
    {
      "SNQP": {
        "airport_name": "Fazenda São Francisco",
        "city": "MAGDA",
        "latitude": -19.43111111111111,
        "longitude": -49.77472222222222
      }
    },
    {
      "SWFS": {
        "airport_name": "Fazenda São Francisco",
        "city": "MOGI MIRIM",
        "latitude": -21.61722222222222,
        "longitude": -46.99111111111111
      }
    },
    {
      "SDNG": {
        "airport_name": "Fazenda São João",
        "city": "JAÚ",
        "latitude": -21.581666666666667,
        "longitude": -47.39944444444444
      }
    },
    {
      "SING": {
        "airport_name": "Fazenda São João",
        "city": "NOVA GRANADA",
        "latitude": -19.44333333333333,
        "longitude": -48.71138888888889
      }
    },
    {
      "SSZT": {
        "airport_name": "Fazenda São João",
        "city": "ÁGUAS DE SANTA BÁRBARA",
        "latitude": -21.210555555555555,
        "longitude": -48.66083333333333
      }
    },
    {
      "SDKQ": {
        "airport_name": "Fazenda São João",
        "city": "GUARACI",
        "latitude": -19.809722222222224,
        "longitude": -48.948888888888895
      }
    },
    {
      "SDJQ": {
        "airport_name": "Fazenda São Joaquim O.B.",
        "city": "PEREIRA BARRETO",
        "latitude": -19.171666666666667,
        "longitude": -50.99194444444444
      }
    },
    {
      "SJBL": {
        "airport_name": "Fazenda São José",
        "city": "RIO CLARO",
        "latitude": -21.669444444444444,
        "longitude": -46.51083333333333
      }
    },
    {
      "SDTX": {
        "airport_name": "Fazenda São José",
        "city": "ILHA SOLTEIRA",
        "latitude": -19.458055555555553,
        "longitude": -50.6425
      }
    },
    {
      "SDYB": {
        "airport_name": "Fazenda São José do Bom Retiro",
        "city": "ITAPETININGA",
        "latitude": -22.215555555555554,
        "longitude": -47.66166666666666
      }
    },
    {
      "SDOB": {
        "airport_name": "Fazenda São José O.B.",
        "city": "TAPIRATIBA",
        "latitude": -20.57472222222222,
        "longitude": -45.245555555555555
      }
    },
    {
      "SDJN": {
        "airport_name": "Fazenda São Luiz",
        "city": "JARDINÓPOLIS",
        "latitude": -20.903333333333336,
        "longitude": -46.26611111111111
      }
    },
    {
      "SNDS": {
        "airport_name": "Fazenda São Martinho",
        "city": "ILHA SOLTEIRA",
        "latitude": -19.642777777777777,
        "longitude": -50.74444444444445
      }
    },
    {
      "SIKG": {
        "airport_name": "Fazenda São Miguel",
        "city": "RIBEIRÃO BRANCO",
        "latitude": -23.801666666666666,
        "longitude": -47.35722222222222
      }
    },
    {
      "SDEB": {
        "airport_name": "Fazenda São Paulo dos Palmares",
        "city": "TIMBURI",
        "latitude": -22.730555555555558,
        "longitude": -48.4525
      }
    },
    {
      "SJAS": {
        "airport_name": "Fazenda São Roque",
        "city": "REGINÓPOLIS",
        "latitude": -20.339722222222225,
        "longitude": -48.83555555555556
      }
    },
    {
      "SJ6J": {
        "airport_name": "Fazenda Sobrado",
        "city": "SÃO MANUEL",
        "latitude": -21.341944444444447,
        "longitude": -47.54944444444444
      }
    },
    {
      "SSHQ": {
        "airport_name": "Fazenda Sossego",
        "city": "ROSANA",
        "latitude": -21.648333333333333,
        "longitude": -51.325833333333335
      }
    },
    {
      "SN68": {
        "airport_name": "Fazenda Suissa",
        "city": "GUAIMBÊ",
        "latitude": -20.09277777777778,
        "longitude": -48.14361111111111
      }
    },
    {
      "SJC2": {
        "airport_name": "Fazenda Tabaroa",
        "city": "ÁGUAS DE SANTA BÁRBARA",
        "latitude": -21.201944444444443,
        "longitude": -48.73111111111111
      }
    },
    {
      "SDDI": {
        "airport_name": "Fazenda Tamara",
        "city": "SALMOURÃO",
        "latitude": -20.408611111111114,
        "longitude": -49.1675
      }
    },
    {
      "SDTE": {
        "airport_name": "Fazenda Tapijara",
        "city": "ARANDU",
        "latitude": -22.779444444444447,
        "longitude": -48.92444444444444
      }
    },
    {
      "SJ2Q": {
        "airport_name": "Fazenda Terra Viva",
        "city": "PORTO FELIZ",
        "latitude": -22.639999999999997,
        "longitude": -46.46388888888889
      }
    },
    {
      "SSVY": {
        "airport_name": "Fazenda Três Barras",
        "city": "PITANGUEIRAS",
        "latitude": -19.06222222222222,
        "longitude": -47.82666666666667
      }
    },
    {
      "SILT": {
        "airport_name": "Fazenda Três Irmãos",
        "city": "SANTA FÉ DO SUL",
        "latitude": -19.772222222222222,
        "longitude": -49.031666666666666
      }
    },
    {
      "SNOW": {
        "airport_name": "Fazenda Turmalina",
        "city": "RANCHARIA",
        "latitude": -20.01777777777778,
        "longitude": -49.02777777777778
      }
    },
    {
      "SIXA": {
        "airport_name": "Fazenda União Suzanápolis",
        "city": "SUZANÁPOLIS",
        "latitude": -19.468333333333334,
        "longitude": -50.90833333333333
      }
    },
    {
      "SDVH": {
        "airport_name": "Fazenda Vale Eldorado - Dr José de Aguiar Leme",
        "city": "BRAGANÇA PAULISTA",
        "latitude": -22.994722222222222,
        "longitude": -45.363055555555555
      }
    },
    {
      "SDVS": {
        "airport_name": "Fazenda Vassoural",
        "city": "PONTAL",
        "latitude": -20.925833333333333,
        "longitude": -47.96888888888889
      }
    },
    {
      "SICN": {
        "airport_name": "Fazenda Vista Bonita",
        "city": "SANDOVALINA",
        "latitude": -21.49361111111111,
        "longitude": -50.18361111111111
      }
    },
    {
      "SIEH": {
        "airport_name": "Fazenda Vô Chico",
        "city": "JALES",
        "latitude": -19.68777777777778,
        "longitude": -49.387499999999996
      }
    },
    {
      "SWFB": {
        "airport_name": "Fazendas Bergamini",
        "city": "RIVERSUL",
        "latitude": -22.212777777777777,
        "longitude": -48.575833333333335
      }
    },
    {
      "SJFC": {
        "airport_name": "Federação do Comércio do Estado de São Paulo",
        "city": "SÃO PAULO",
        "latitude": -22.441666666666666,
        "longitude": -45.34777777777778
      }
    },
    {
      "SDFV": {
        "airport_name": "Federação Paulista de Futebol",
        "city": "SÃO PAULO",
        "latitude": -22.477777777777778,
        "longitude": -45.33277777777778
      }
    },
    {
      "SJHI": {
        "airport_name": "Flow Water",
        "city": "CAMPOS DO JORDÃO",
        "latitude": -21.25,
        "longitude": -44.467222222222226
      }
    },
    {
      "SNRL": {
        "airport_name": "Folhamatic",
        "city": "AMERICANA",
        "latitude": -21.240833333333335,
        "longitude": -46.674166666666665
      }
    },
    {
      "SDKG": {
        "airport_name": "Francisco Mellão",
        "city": "SÃO PAULO",
        "latitude": -22.40638888888889,
        "longitude": -45.31138888888889
      }
    },
    {
      "SBML": {
        "airport_name": "FRANK MILOYE MILENKOVICH",
        "city": "MARÍLIA",
        "latitude": -21.803055555555556,
        "longitude": -48.07361111111111,
        "airspace_class": "CLASS D"
      }
    },
    {
      "SSQX": {
        "airport_name": "Frei Caneca Shopping",
        "city": "SÃO PAULO",
        "latitude": -22.44611111111111,
        "longitude": -45.34722222222222
      }
    },
    {
      "SWTF": {
        "airport_name": "Friboi",
        "city": "SÃO PAULO",
        "latitude": -22.48638888888889,
        "longitude": -45.26888888888889
      }
    },
    {
      "SJFF": {
        "airport_name": "Frigo Estrela",
        "city": "ESTRELA DOESTE",
        "latitude": -19.704444444444444,
        "longitude": -49.58888888888889
      }
    },
    {
      "SDFB": {
        "airport_name": "Fundação Bradesco",
        "city": "CAMPINAS",
        "latitude": -21.035555555555558,
        "longitude": -46.922777777777775
      }
    },
    {
      "SNGC": {
        "airport_name": "Galleria Corporate",
        "city": "CAMPINAS",
        "latitude": -21.133611111111108,
        "longitude": -46.97833333333333
      }
    },
    {
      "SNTN": {
        "airport_name": "Gama",
        "city": "BARUERI",
        "latitude": -22.515277777777776,
        "longitude": -45.14416666666666
      }
    },
    {
      "SN49": {
        "airport_name": "Gama Terra",
        "city": "ITUVERAVA",
        "latitude": -19.65388888888889,
        "longitude": -46.21
      }
    },