{
  "PR": [
    {
      "SSOK": {
        "airport_name": "14 Bis",
        "city": "LONDRINA",
        "latitude": -23.21472222222222,
        "longitude": -5.186111111111112
      }
    },
    {
      "SSAF": {
        "airport_name": "Aeroclube de Foz do Iguaçu",
        "city": "SANTA TEREZINHA DE ITAIPU",
        "latitude": -25.369722222222222,
        "longitude": -5.7225
      }
    },
    {
      "SJGS": {
        "airport_name": "Aerosigma Helicentro",
        "city": "BOCAIÚVA DO SUL",
        "latitude": -25.256944444444443,
        "longitude": -5.523055555555556
      }
    },
    {
      "SI72": {
        "airport_name": "Aerosport Maringá",
        "city": "IGUARAÇU",
        "latitude": -23.18861111111111,
        "longitude": -5.2555555555555555
      }
    },
    {
      "SBCT": {
        "airport_name": "Afonso Pena",
        "city": "CURITIBA",
        "latitude": -25.531666666666666,
        "longitude": -5.5175,
        "airspace_class": "CLASS A"
      }
    },
    {
      "SSEL": {
        "airport_name": "ANAMI",
        "city": "SÃO JOSÉ DOS PINHAIS",
        "latitude": -25.592777777777776,
        "longitude": -5.519444444444445
      }
    },
    {
      "SSOG": {
        "airport_name": "Arapongas",
        "city": "ARAPONGAS",
        "latitude": -23.352777777777778,
        "longitude": -5.225833333333333
      }
    },
    {
      "SJPR": {
        "airport_name": "Asas de Balsa Nova",
        "city": "BALSA NOVA",
        "latitude": -25.549444444444447,
        "longitude": -5.573055555555555
      }
    },
    {
      "SJP8": {
        "airport_name": "Associação Aeroclube de Faxinal",
        "city": "FAXINAL",
        "latitude": -23.97138888888889,
        "longitude": -5.209444444444444
      }
    },
    {
      "SBBI": {
        "airport_name": "Bacacheri",
        "city": "CURITIBA",
        "latitude": -25.403333333333332,
        "longitude": -5.527777777777778,
        "airspace_class": "CLASS B"
      }
    },
    {
      "SSCR": {
        "airport_name": "Balduino Helmuth Jope",
        "city": "MARECHAL CÂNDIDO RONDON",
        "latitude": -24.512777777777778,
        "longitude": -5.675277777777778
      }
    },
    {
      "SNBB": {
        "airport_name": "BMR Medical",
        "city": "CAMPINA GRANDE DO SUL",
        "latitude": -25.346944444444443,
        "longitude": -5.5088888888888885
      }
    },
    {
      "SJJS": {
        "airport_name": "BS Colway",
        "city": "PIRAQUARA",
        "latitude": -25.461388888888887,
        "longitude": -5.516944444444444
      }
    },
    {
      "SJLR": {
        "airport_name": "Cambiju",
        "city": "PONTA GROSSA",
        "latitude": -25.246944444444445,
        "longitude": -5.597222222222222
      }
    },
    {
      "SSKM": {
        "airport_name": "Campo Mourão",
        "city": "CAMPO MOURÃO",
        "latitude": -24.0025,
        "longitude": -5.369999999999999
      }
    },
    {
      "SINP": {
        "airport_name": "Campo Primavera",
        "city": "SANTA MÔNICA",
        "latitude": -23.12138888888889,
        "longitude": -5.512222222222222
      }
    },
    {
      "SSAP": {
        "airport_name": "Capitão João Busse",
        "city": "APUCARANA",
        "latitude": -23.612222222222222,
        "longitude": -5.208333333333334
      }
    },
    {
      "SSQT": {
        "airport_name": "Castro",
        "city": "CASTRO",
        "latitude": -24.8075,
        "longitude": -5.60361111111111
      }
    },
    {
      "SSKP": {
        "airport_name": "CEAL",
        "city": "PALOTINA",
        "latitude": -24.30888888888889,
        "longitude": -5.5841666666666665
      }
    },
    {
      "SJSM": {
        "airport_name": "Chácara Marcella",
        "city": "GOIOERÊ",
        "latitude": -24.209722222222222,
        "longitude": -5.5008333333333335
      }
    },
    {
      "SWMT": {
        "airport_name": "Chácara São Matheus",
        "city": "JAPURÁ",
        "latitude": -23.485,
        "longitude": -5.3950000000000005
      }
    },
    {
      "SJUT": {
        "airport_name": "Cimento Rio Branco",
        "city": "RIO BRANCO DO SUL",
        "latitude": -25.195555555555554,
        "longitude": -5.541666666666667
      }
    },
    {
      "SDKB": {
        "airport_name": "CJB CURITIBA",
        "city": "CURITIBA",
        "latitude": -25.438055555555557,
        "longitude": -5.528333333333333
      }
    },
    {
      "SWES": {
        "airport_name": "Clube de Aviação Experimental do Paraná",
        "city": "IBIPORÃ",
        "latitude": -23.287222222222223,
        "longitude": -5.181111111111111
      }
    },
    {
      "SBPG": {
        "airport_name": "Comandante Antônio Amilton Beraldo",
        "city": "PONTA GROSSA",
        "latitude": -25.184444444444445,
        "longitude": -5.023055555555556,
        "airspace_class": "CLASS E"
      }
    },
    {
      "SWIT": {
        "airport_name": "Condomínio de Voo Itaipu - CVI",
        "city": "SANTA TEREZINHA DE ITAIPU",
        "latitude": -25.484444444444446,
        "longitude": -5.717222222222222
      }
    },
    {
      "SDXC": {
        "airport_name": "Condor",
        "city": "CURITIBA",
        "latitude": -25.515555555555554,
        "longitude": -5.537222222222222
      }
    },
    {
      "SDML": {
        "airport_name": "Destro Macro",
        "city": "CURITIBA",
        "latitude": -25.558333333333334,
        "longitude": -5.539166666666667
      }
    },
    {
      "SSPS": {
        "airport_name": "Dimorvan Carraro",
        "city": "PALMAS",
        "latitude": -26.47222222222222,
        "longitude": -5.273055555555556
      }
    },
    {
      "SIJR": {
        "airport_name": "Ely Rego",
        "city": "BALSA NOVA",
        "latitude": -25.539444444444445,
        "longitude": -5.566666666666666
      }
    },
    {
      "SNNM": {
        "airport_name": "Entre Rios",
        "city": "GUARAPUAVA",
        "latitude": -25.566111111111113,
        "longitude": -5.226111111111111
      }
    },
    {
      "SJAJ": {
        "airport_name": "Estação Convention Center",
        "city": "CURITIBA",
        "latitude": -25.43888888888889,
        "longitude": -5.533333333333333
      }
    },
    {
      "SIB7": {
        "airport_name": "Estancia Campo Verde",
        "city": "UBIRATÃ",
        "latitude": -24.46833333333333,
        "longitude": -5.425000000000001
      }
    },
    {
      "SWOE": {
        "airport_name": "Estância do Sol",
        "city": "ARAPONGAS",
        "latitude": -23.508333333333333,
        "longitude": -5.215277777777778
      }
    },
    {
      "SSFE": {
        "airport_name": "Estância Hércules",
        "city": "FOZ DO IGUAÇU",
        "latitude": -25.460833333333333,
        "longitude": -5.731944444444444
      }
    },
    {
      "SWEP": {
        "airport_name": "Estância Punta Del Este",
        "city": "SERTANEJA",
        "latitude": -22.804444444444446,
        "longitude": -5.106944444444444
      }
    },
    {
      "SDSJ": {
        "airport_name": "Executivo",
        "city": "CASCAVEL",
        "latitude": -24.87138888888889,
        "longitude": -5.554166666666666
      }
    },
    {
      "SI9Z": {
        "airport_name": "Fazenda Bandeirantes",
        "city": "GOIOERÊ",
        "latitude": -24.203888888888887,
        "longitude": -5.440277777777778
      }
    },
    {
      "SDXO": {
        "airport_name": "Fazenda Barra Grande",
        "city": "TOMAZINA",
        "latitude": -23.589166666666664,
        "longitude": -5.0055555555555555
      }
    },
    {
      "SJVS": {
        "airport_name": "Fazenda Boa Vista",
        "city": "SANTA FÉ",
        "latitude": -23.079166666666666,
        "longitude": -5.251111111111111
      }
    },
    {
      "SIAI": {
        "airport_name": "Fazenda Esteirinha",
        "city": "GOIOERÊ",
        "latitude": -24.209166666666665,
        "longitude": -5.518055555555556
      }
    },
    {
      "SN7Q": {
        "airport_name": "Fazenda Festugato",
        "city": "SANTA TEREZA DO OESTE",
        "latitude": -25.048611111111114,
        "longitude": -5.559444444444444
      }
    },
    {
      "SSXG": {
        "airport_name": "Fazenda Guanabara",
        "city": "PARANAPOEMA",
        "latitude": -22.661666666666665,
        "longitude": -5.356388888888889
      }
    },
    {
      "SSGU": {
        "airport_name": "Fazenda Gurucaia",
        "city": "SANTA ISABEL DO IVAÍ",
        "latitude": -23.18638888888889,
        "longitude": -5.5424999999999995
      }
    },
    {
      "SJDI": {
        "airport_name": "Fazenda Ipiranga",
        "city": "LOANDA",
        "latitude": -22.918055555555558,
        "longitude": -5.511111111111111
      }
    },
    {
      "SSJP": {
        "airport_name": "Fazenda Junqueira",
        "city": "COLORADO",
        "latitude": -22.890833333333333,
        "longitude": -5.264722222222222
      }
    },
    {
      "SSHL": {
        "airport_name": "Fazenda Jussara",
        "city": "JUSSARA",
        "latitude": -23.575,
        "longitude": -5.378888888888889
      }
    },
    {
      "SIYM": {
        "airport_name": "Fazenda Montesion",
        "city": "TOLEDO",
        "latitude": -24.881666666666668,
        "longitude": -5.5808333333333335
      }
    },
    {
      "SJ62": {
        "airport_name": "Fazenda Nossa Senhora de Lourdes",
        "city": "DIAMANTE DO NORTE",
        "latitude": -22.646666666666665,
        "longitude": -5.434722222222223
      }
    },
    {
      "SSHP": {
        "airport_name": "Fazenda Paiol do Piquiri",
        "city": "GOIOXIM",
        "latitude": -25.047222222222224,
        "longitude": -5.264444444444444
      }
    },
    {
      "SSUW": {
        "airport_name": "Fazenda Palmeiras",
        "city": "CENTENÁRIO DO SUL",
        "latitude": -22.775277777777777,
        "longitude": -5.216944444444445
      }
    },
    {
      "SNUA": {
        "airport_name": "Fazenda Paulista",
        "city": "SANTA TEREZINHA DE ITAIPU",
        "latitude": -25.391666666666666,
        "longitude": -5.711944444444445
      }
    },
    {
      "SSFX": {
        "airport_name": "Fazenda Primavera",
        "city": "NOVA FÁTIMA",
        "latitude": -23.45722222222222,
        "longitude": -5.0625
      }
    },
    {
      "SJEL": {
        "airport_name": "Fazenda Santa Helena",
        "city": "CORNÉLIO PROCÓPIO",
        "latitude": -23.340555555555554,
        "longitude": -5.063888888888889
      }
    },
    {
      "SWAI": {
        "airport_name": "Fazenda Santa Luzia",
        "city": "ICARAÍMA",
        "latitude": -23.35,
        "longitude": -5.559722222222222
      }
    },
    {
      "SSLX": {
        "airport_name": "Fazenda Santa Lydia",
        "city": "DIAMANTE DO NORTE",
        "latitude": -22.633055555555558,
        "longitude": -5.423055555555556
      }
    },
    {
      "SWSA": {
        "airport_name": "Fazenda Santa Maria",
        "city": "LONDRINA",
        "latitude": -23.495833333333334,
        "longitude": -5.208611111111112
      }
    },
    {
      "SN4L": {
        "airport_name": "Fazenda Santa Maria",
        "city": "CORNÉLIO PROCÓPIO",
        "latitude": -23.299166666666668,
        "longitude": -5.069444444444445
      }
    },
    {
      "SWLS": {
        "airport_name": "Fazenda São Luis",
        "city": "PALOTINA",
        "latitude": -24.198888888888888,
        "longitude": -5.589444444444444
      }
    },
    {
      "SJB6": {
        "airport_name": "Fazenda São Luís",
        "city": "RONCADOR",
        "latitude": -24.552222222222223,
        "longitude": -5.375277777777777
      }
    },
    {
      "SNWH": {
        "airport_name": "Fazenda São Matheus",
        "city": "QUERÊNCIA DO NORTE",
        "latitude": -22.961944444444445,
        "longitude": -5.556666666666667
      }
    },
    {
      "SDUE": {
        "airport_name": "Fazenda Thália",
        "city": "BALSA NOVA",
        "latitude": -25.52017777777778,
        "longitude": -5.5680555555555555
      }
    },
    {
      "SIDY": {
        "airport_name": "Fazenda Yanduy",
        "city": "LUNARDELLI",
        "latitude": -24.0775,
        "longitude": -5.258611111111112
      }
    },
    {
      "SNDF": {
        "airport_name": "Fecularia Lopes",
        "city": "ITAÚNA DO SUL",
        "latitude": -22.766666666666666,
        "longitude": -5.423055555555556
      }
    },
    {
      "SIHE": {
        "airport_name": "Fortesolo",
        "city": "PARANAGUÁ",
        "latitude": -25.554166666666667,
        "longitude": -5.392222222222221
      }
    },
    {
      "SSFA": {
        "airport_name": "Foz do Areia",
        "city": "PINHÃO",
        "latitude": -25.981666666666666,
        "longitude": -5.239444444444445
      }
    },
    {
      "SJYX": {
        "airport_name": "Foz do Chopim",
        "city": "CRUZEIRO DO IGUAÇU",
        "latitude": -25.571944444444444,
        "longitude": -5.52
      }
    },
    {
      "SSFY": {
        "airport_name": "Furnas Centrais Elétricas",
        "city": "FOZ DO IGUAÇU",
        "latitude": -25.473333333333333,
        "longitude": -5.723055555555556
      }
    },
    {
      "SBLO": {
        "airport_name": "Governador José Richa",
        "city": "LONDRINA",
        "latitude": -23.330277777777777,
        "longitude": -5.189166666666667,
        "airspace_class": "CLASS C"
      }
    },
    {
      "SWYG": {
        "airport_name": "Graciosa",
        "city": "PIRAQUARA",
        "latitude": -25.406388888888888,
        "longitude": -5.508333333333334
      }
    },
    {
      "SDRG": {
        "airport_name": "Graciosa",
        "city": "PINHAIS",
        "latitude": -25.391944444444444,
        "longitude": -5.525555555555556
      }
    },
    {
      "SWGE": {
        "airport_name": "Green Technology",
        "city": "CAMPO LARGO",
        "latitude": -25.435555555555556,
        "longitude": -5.548055555555555
      }
    },
    {
      "SSGY": {
        "airport_name": "Guaíra",
        "city": "GUAÍRA",
        "latitude": -24.079722222222223,
        "longitude": -5.686388888888889
      }
    },
    {
      "SIFY": {
        "airport_name": "Heliponto Conduspar",
        "city": "SÃO JOSÉ DOS PINHAIS",
        "latitude": -25.572499999999998,
        "longitude": -5.525
      }
    },
    {
      "SJAB": {
        "airport_name": "Helisul - Cataratas",
        "city": "FOZ DO IGUAÇU",
        "latitude": -25.692777777777778,
        "longitude": -5.715277777777778
      }
    },
    {
      "SJAX": {
        "airport_name": "Helisul Afonso Pena",
        "city": "SÃO JOSÉ DOS PINHAIS",
        "latitude": -25.536944444444448,
        "longitude": -5.517777777777778
      }
    },
    {
      "SSHH": {
        "airport_name": "Helisul I",
        "city": "FOZ DO IGUAÇU",
        "latitude": -25.60888888888889,
        "longitude": -5.725833333333333
      }
    },
    {
      "SSHS": {
        "airport_name": "Helisul IV",
        "city": "FOZ DO IGUAÇU",
        "latitude": -25.613055555555558,
        "longitude": -5.723611111111111
      }
    },
    {
      "SSHI": {
        "airport_name": "HELPN IURD",
        "city": "CURITIBA",
        "latitude": -25.442222222222224,
        "longitude": -5.531666666666666
      }
    },
    {
      "SSAN": {
        "airport_name": "JOÃO GALDINO",
        "city": "ANDIRÁ",
        "latitude": -23.02722222222222,
        "longitude": -5.025833333333333
      }
    },
    {
      "SWCT": {
        "airport_name": "Laguna Iguaçu",
        "city": "CURITIBA",
        "latitude": -25.449166666666667,
        "longitude": -5.536666666666666
      }
    },
    {
      "SBTD": {
        "airport_name": "Luiz Dalcanale Filho",
        "city": "TOLEDO",
        "latitude": -24.685277777777777,
        "longitude": -5.570555555555555,
        "airspace_class": "CLASS E"
      }
    },
    {
      "SWWE": {
        "airport_name": "M. Baumann",
        "city": "PIÊN",
        "latitude": -26.035833333333336,
        "longitude": -5.55
      }
    },
    {
      "SSMR": {
        "airport_name": "Manoel Ribas",
        "city": "MANOEL RIBAS",
        "latitude": -24.529444444444444,
        "longitude": -5.241666666666667
      }
    },
    {
      "SSGW": {
        "airport_name": "Manoel Ribas",
        "city": "GOIOERÊ",
        "latitude": -24.21972222222222,
        "longitude": -5.506388888888889
      }
    },
    {
      "SSCF": {
        "airport_name": "Max Fontoura",
        "city": "CAMPO LARGO",
        "latitude": -25.426111111111112,
        "longitude": -5.553333333333333
      }
    },
    {
      "SIOE": {
        "airport_name": "Mocelin",
        "city": "DOIS VIZINHOS",
        "latitude": -25.79388888888889,
        "longitude": -5.5055555555555555
      }
    },
    {
      "SSAB": {
        "airport_name": "Moisés Lupion",
        "city": "IBAITI",
        "latitude": -23.762777777777778,
        "longitude": -5.031666666666666
      }
    },
    {
      "SWTM": {
        "airport_name": "Moro Golf Club",
        "city": "PONTA GROSSA",
        "latitude": -25.114722222222223,
        "longitude": -5.017222222222222
      }
    },
    {
      "SSGB": {
        "airport_name": "Municipal de Guaratuba",
        "city": "GUARATUBA",
        "latitude": -25.880555555555556,
        "longitude": -5.401111111111111
      }
    },
    {
      "SBQJ": {
        "airport_name": "Osvaldo de Carvalho",
        "city": "IBAITI",
        "latitude": -23.84638888888889,
        "longitude": -5.023055555555556
      }
    },
    {
      "SSOF": {
        "airport_name": "Ouro Verde",
        "city": "CURITIBA",
        "latitude": -25.508055555555554,
        "longitude": -5.543055555555555
      }
    },
    {
      "SSLU": {
        "airport_name": "Palazzo Lumini",
        "city": "CURITIBA",
        "latitude": -25.439722222222223,
        "longitude": -5.534166666666667
      }
    },
    {
      "SIOX": {
        "airport_name": "Palhano Premium",
        "city": "LONDRINA",
        "latitude": -23.335555555555555,
        "longitude": -5.184166666666667
      }
    },
    {
      "SSPX": {
        "airport_name": "Paraná Moda Park",
        "city": "MARINGÁ",
        "latitude": -23.4625,
        "longitude": -5.275833333333333
      }
    },
    {
      "SSBP": {
        "airport_name": "Parque Barigui",
        "city": "CURITIBA",
        "latitude": -25.43111111111111,
        "longitude": -5.540277777777778
      }
    },
    {
      "SISY": {
        "airport_name": "Piraquara",
        "city": "PIRAQUARA",
        "latitude": -25.45138888888889,
        "longitude": -5.523055555555556
      }
    },
    {
      "SJW8": {
        "airport_name": "Plenovale",
        "city": "TUNAS DO PARANÁ",
        "latitude": -24.980555555555554,
        "longitude": -5.515
      }
    },
    {
      "SSJF": {
        "airport_name": "Polícia Federal Curitiba",
        "city": "CURITIBA",
        "latitude": -25.37611111111111,
        "longitude": -5.526111111111111
      }
    },
    {
      "SJPF": {
        "airport_name": "Polícia Federal-Foz do Iguaçu",
        "city": "FOZ DO IGUAÇU",
        "latitude": -25.516666666666666,
        "longitude": -5.7283333333333335
      }
    },
    {
      "SD6O": {
        "airport_name": "Pontal das Garças",
        "city": "RIBEIRÃO CLARO",
        "latitude": -23.29277777777778,
        "longitude": -5.578055555555555
      }
    },
    {
      "SIZW": {
        "airport_name": "Portal do Porto",
        "city": "SÃO JOSÉ DOS PINHAIS",
        "latitude": -25.514444444444443,
        "longitude": -5.520833333333333
      }
    },
    {
      "SIUP": {
        "airport_name": "Pousada Fazenda Virá",
        "city": "TEIXEIRA SOARES",
        "latitude": -25.38888888888889,
        "longitude": -5.056388888888889
      }
    },
    {
      "SJ96": {
        "airport_name": "Prudentópolis",
        "city": "PRUDENTÓPOLIS",
        "latitude": -25.1825,
        "longitude": -5.097777777777777
      }
    },
    {
      "SIMC": {
        "airport_name": "Punta Del Este",
        "city": "SERTANEJA",
        "latitude": -22.808055555555555,
        "longitude": -5.109444444444444
      }
    },
    {
      "SDEQ": {
        "airport_name": "Quatro Barras",
        "city": "QUATRO BARRAS",
        "latitude": -25.37666666666667,
        "longitude": -5.513888888888889
      }
    },
    {
      "SSRE": {
        "airport_name": "Realeza",
        "city": "REALEZA",
        "latitude": -25.801111111111112,
        "longitude": -5.551111111111111
      }
    },
    {
      "SSHN": {
        "airport_name": "Recanto das Águias",
        "city": "IGUARAÇU",
        "latitude": -23.245555555555555,
        "longitude": -5.256388888888889
      }
    },
    {
      "SI2M": {
        "airport_name": "Residencial Fornagieri",
        "city": "PARANAVAÍ",
        "latitude": -23.1,
        "longitude": -5.389166666666666
      }
    },
    {
      "SJY8": {
        "airport_name": "Risicola VR",
        "city": "SANTA ISABEL DO IVAÍ",
        "latitude": -23.183888888888887,
        "longitude": -5.523611111111111
      }
    },
    {
      "SJRL": {
        "airport_name": "Ryhad Palace Hotel",
        "city": "ARAUCÁRIA",
        "latitude": -25.58277777777778,
        "longitude": -5.542777777777777
      }
    },
    {
      "SSNM": {
        "airport_name": "Santa Mônica",
        "city": "COLOMBO",
        "latitude": -25.381944444444446,
        "longitude": -5.5225
      }
    },
    {
      "SSMY": {
        "airport_name": "São Miguel do Iguaçu",
        "city": "SÃO MIGUEL DO IGUAÇU",
        "latitude": -25.392777777777777,
        "longitude": -5.7
      }
    },
    {
      "SNPM": {
        "airport_name": "SCHÕN",
        "city": "PITANGA",
        "latitude": -24.754444444444445,
        "longitude": -5.248333333333333
      }
    },
    {
      "SSEG": {
        "airport_name": "Sementes Guerra",
        "city": "RENASCENÇA",
        "latitude": -26.290000000000003,
        "longitude": -5.433611111111111
      }
    },
    {
      "SJKK": {
        "airport_name": "Sérgio Bonifácio",
        "city": "IVAIPORÃ",
        "latitude": -24.263516666666668,
        "longitude": -5.239444444444445
      }
    },
    {
      "SD7C": {
        "airport_name": "Serrinha",
        "city": "PALMEIRA",
        "latitude": -25.459166666666665,
        "longitude": -5.0055555555555555
      }
    },
    {
      "SSSZ": {
        "airport_name": "Sertanópolis",
        "city": "SERTANÓPOLIS",
        "latitude": -23.061944444444446,
        "longitude": -5.168055555555556
      }
    },
    {
      "SSCY": {
        "airport_name": "Sikorski",
        "city": "CAMPO LARGO",
        "latitude": -25.43861111111111,
        "longitude": -5.551388888888889
      }
    },
    {
      "SBMG": {
        "airport_name": "Silvio Name Junior",
        "city": "MARINGÁ",
        "latitude": -23.476388888888888,
        "longitude": -5.336111111111111,
        "airspace_class": "CLASS D"
      }
    },
    {
      "SSQC": {
        "airport_name": "Siqueira Campos",
        "city": "SIQUEIRA CAMPOS",
        "latitude": -23.674722222222222,
        "longitude": -5.590277777777778
      }
    },
    {
      "SSSP": {
        "airport_name": "Sítio Primavera",
        "city": "BOM JESUS DO SUL",
        "latitude": -26.181944444444447,
        "longitude": -5.572777777777778
      }
    },
    {
      "SWTT": {
        "airport_name": "Supermax",
        "city": "CURITIBA",
        "latitude": -25.4325,
        "longitude": -5.5424999999999995
      }
    },
    {
      "SWTB": {
        "airport_name": "Tarobá",
        "city": "SANTA TEREZINHA DE ITAIPU",
        "latitude": -25.548055555555557,
        "longitude": -5.7250000000000005
      }
    },
    {
      "SJQA": {
        "airport_name": "Teimoso",
        "city": "CAMPO LARGO",
        "latitude": -25.42666666666667,
        "longitude": -5.553333333333333
      }
    },
    {
      "SSVL": {
        "airport_name": "TELÊMACO BORBA",
        "city": "TELÊMACO BORBA",
        "latitude": -24.31638888888889,
        "longitude": -5.075
      }
    },
    {
      "SNTT": {
        "airport_name": "Teston",
        "city": "CIANORTE",
        "latitude": -23.65694444444444,
        "longitude": -5.389444444444445
      }
    },
    {
      "SDA9": {
        "airport_name": "Tijucas do Sul",
        "city": "TIJUCAS DO SUL",
        "latitude": -25.87388888888889,
        "longitude": -5.5175
      }
    },
    {
      "SI4Z": {
        "airport_name": "Toledo Aviação",
        "city": "TOLEDO",
        "latitude": -24.63861111111111,
        "longitude": -5.575277777777778
      }
    },
    {
      "SJST": {
        "airport_name": "Umbará Energy",
        "city": "CURITIBA",
        "latitude": -25.60388888888889,
        "longitude": -5.536944444444444
      }
    },
    {
      "SDDZ": {
        "airport_name": "Vila São Paulo/Mercosul",
        "city": "ALVORADA DO SUL",
        "latitude": -22.696666666666665,
        "longitude": -5.209722222222222
      }
    },
    {
      "SINZ": {
        "airport_name": "Xanadu",
        "city": "FERNANDES PINHEIRO",
        "latitude": -25.438055555555557,
        "longitude": -5.053888888888888
      }
    }
  ],
  "SP": [
    {
      "SSFR": {
        "airport_name": "18 do Forte Empresarial",
        "city": "BARUERI",
        "latitude": -23.483888888888888,
        "longitude": -5.086666666666666
      }
    },
    {
      "SDZD": {
        "airport_name": "ABB Sorocaba",
        "city": "SOROCABA",
        "latitude": -23.42527777777778,
        "longitude": -5.203888888888889
      }
    },
    {
      "SJZX": {
        "airport_name": "Abreu Rocha",
        "city": "PRAIA GRANDE",
        "latitude": -24.006944444444443,
        "longitude": -5.045833333333333
      }
    },
    {
      "SNLP": {
        "airport_name": "Acapulco Guarujá",
        "city": "GUARUJÁ",
        "latitude": -23.954444444444444,
        "longitude": -5.022222222222222
      }
    },
    {
      "SDAC": {
        "airport_name": "Aché",
        "city": "GUARULHOS",
        "latitude": -23.47472222222222,
        "longitude": -5.053333333333333
      }
    },
    {
      "SDGG": {
        "airport_name": "Aché Faria Lima",
        "city": "SÃO PAULO",
        "latitude": -23.560833333333335,
        "longitude": -5.070277777777777
      }
    },
    {
      "SIOR": {
        "airport_name": "Adhemar Ribeiro",
        "city": "SANTA RITA DO PASSA QUATRO",
        "latitude": -21.641944444444444,
        "longitude": -5.2225
      }
    },
    {
      "SSYS": {
        "airport_name": "Aero do Vale Miracatu",
        "city": "MIRACATU",
        "latitude": -24.305555555555557,
        "longitude": -5.216944444444445
      }
    },
    {
      "SWDI": {
        "airport_name": "Aeroagrícola Solo",
        "city": "PARANAPANEMA",
        "latitude": -23.447777777777777,
        "longitude": -5.4222222222222225
      }
    },
    {
      "SDID": {
        "airport_name": "Aeroata",
        "city": "ARAÇATUBA",
        "latitude": -21.253055555555555,
        "longitude": -5.055555555555555
      }
    },
    {
      "SJWQ": {
        "airport_name": "Aeroclube de Birigui - CMTE Munir Djabak",
        "city": "BIRIGUI",
        "latitude": -21.216666666666665,
        "longitude": -5.039444444444444
      }
    },
    {
      "SDH4": {
        "airport_name": "Aeroclube de Itapeva",
        "city": "ITAPEVA",
        "latitude": -23.941111111111113,
        "longitude": -5.423611111111112
      }
    },
    {
      "SDIO": {
        "airport_name": "Aeroclube de Itápolis",
        "city": "ITÁPOLIS",
        "latitude": -21.599722222222223,
        "longitude": -5.426388888888889
      }
    },
    {
      "SJ2Y": {
        "airport_name": "Aeroclube de Lucélia - Cmte João Possibom",
        "city": "LUCÉLIA",
        "latitude": -21.748611111111114,
        "longitude": -5.169444444444445
      }
    },
    {
      "SSRG": {
        "airport_name": "Aeroporto Estadual de Registro",
        "city": "REGISTRO",
        "latitude": -24.531666666666666,
        "longitude": -5.250555555555556
      }
    },
    {
      "SIHW": {
        "airport_name": "Agrishow",
        "city": "RIBEIRÃO PRETO",
        "latitude": -21.211666666666666,
        "longitude": -5.254166666666666
      }
    },
    {
      "SSDA": {
        "airport_name": "Água Mansa",
        "city": "SÃO SEBASTIÃO",
        "latitude": -23.74138888888889,
        "longitude": -4.878055555555556
      }
    },
    {
      "SWSK": {
        "airport_name": "Akron",
        "city": "SÃO PAULO",
        "latitude": -23.609166666666667,
        "longitude": -5.067222222222222
      }
    },
    {
      "SJXP": {
        "airport_name": "Alice Maria Sampaio Ferreira",
        "city": "SÃO PAULO",
        "latitude": -23.611111111111114,
        "longitude": -5.070555555555555
      }
    },
    {
      "SN48": {
        "airport_name": "Almarias",
        "city": "JARINU",
        "latitude": -23.135277777777777,
        "longitude": -5.086111111111111
      }
    },
    {
      "SWUP": {
        "airport_name": "Almenat",
        "city": "EMBU DAS ARTES",
        "latitude": -23.64638888888889,
        "longitude": -5.090277777777778
      }
    },
    {
      "SDQS": {
        "airport_name": "Alpendre Eventos",
        "city": "TAUBATÉ",
        "latitude": -23.1375,
        "longitude": -4.889722222222223
      }
    },
    {
      "SDIK": {
        "airport_name": "Alpha Business Empresarial",
        "city": "CAMPINAS",
        "latitude": -22.819444444444443,
        "longitude": -5.1722222222222225
      }
    },
    {
      "SIPI": {
        "airport_name": "Alphacentro",
        "city": "BARUERI",
        "latitude": -23.498055555555556,
        "longitude": -5.087222222222222
      }
    },
    {
      "SN3D": {
        "airport_name": "Alphaville Nova Esplanada 2",
        "city": "VOTORANTIM",
        "latitude": -23.55888888888889,
        "longitude": -5.222777777777778
      }
    },
    {
      "SNHL": {
        "airport_name": "Ama",
        "city": "ARUJÁ",
        "latitude": -23.399722222222223,
        "longitude": -5.039722222222222
      }
    },
    {
      "SNAZ": {
        "airport_name": "Amazônia",
        "city": "BARUERI",
        "latitude": -23.49277777777778,
        "longitude": -5.084722222222222
      }
    },
    {
      "SWYF": {
        "airport_name": "Ambipar",
        "city": "AMERICANA",
        "latitude": -22.76,
        "longitude": -5.197500000000001
      }
    },
    {
      "SDHF": {
        "airport_name": "Ambroso",
        "city": "SÃO JOÃO DA BOA VISTA",
        "latitude": -21.966666666666665,
        "longitude": -5.080555555555556
      }
    },
    {
      "SIE7": {
        "airport_name": "Animalia Park",
        "city": "COTIA",
        "latitude": -23.621944444444445,
        "longitude": -5.105833333333333
      }
    },
    {
      "SDP7": {
        "airport_name": "Antenor Duarte Vilela",
        "city": "BARRETOS",
        "latitude": -20.49388888888889,
        "longitude": -48.67305555555555
      }
    },
    {
      "SWOP": {
        "airport_name": "APTA",
        "city": "SÃO BERNARDO DO CAMPO",
        "latitude": -23.768055555555556,
        "longitude": -5.064722222222222
      }
    },
    {
      "SI3J": {
        "airport_name": "AR TELECOM",
        "city": "MOCOCA",
        "latitude": -21.51388888888889,
        "longitude": -5.17
      }
    },
    {
      "SDAA": {
        "airport_name": "Araras",
        "city": "ARARAS",
        "latitude": -22.336944444444445,
        "longitude": -5.203611111111111
      }
    },
    {
      "SBOP": {
        "airport_name": "Arena Corinthians",
        "city": "SÃO PAULO",
        "latitude": -23.54416666666667,
        "longitude": -5.056666666666667
      }
    },
    {
      "SDLY": {
        "airport_name": "Armando Natali",
        "city": "MATÃO",
        "latitude": -21.624166666666667,
        "longitude": -5.369444444444445
      }
    },
    {
      "SNIA": {
        "airport_name": "Arujá",
        "city": "ARUJÁ",
        "latitude": -23.394166666666667,
        "longitude": -5.036388888888888
      }
    },
    {
      "SDBN": {
        "airport_name": "Associação Recreativa Fazenda Bonanza",
        "city": "SALTO DE PIRAPORA",
        "latitude": -23.68722222222222,
        "longitude": -5.225555555555555
      }
    },
    {
      "SDPC": {
        "airport_name": "Atena",
        "city": "RANCHARIA",
        "latitude": -22.152777777777775,
        "longitude": -5.170555555555556
      }
    },
    {
      "SDTB": {
        "airport_name": "ATIBAIA",
        "city": "ATIBAIA",
        "latitude": -23.128333333333334,
        "longitude": -5.0616666666666665
      }
    },
    {
      "SJBP": {
        "airport_name": "Atrium VI.com",
        "city": "SÃO PAULO",
        "latitude": -23.595555555555553,
        "longitude": -5.069722222222222
      }
    },
    {
      "SSVZ": {
        "airport_name": "Autovias",
        "city": "RIBEIRÃO PRETO",
        "latitude": -21.16333333333333,
        "longitude": -5.2475000000000005
      }
    },
    {
      "SDJI": {
        "airport_name": "AVIBRÁS II",
        "city": "JACAREÍ",
        "latitude": -23.32611111111111,
        "longitude": -4.925000000000001
      }
    },
    {
      "SJXR": {
        "airport_name": "B. Cao Viño",
        "city": "PRAIA GRANDE",
        "latitude": -24.01,
        "longitude": -5.0472222222222225
      }
    },
    {
      "SDBV": {
        "airport_name": "Balneário São Januário",
        "city": "ILHA COMPRIDA",
        "latitude": -24.870833333333334,
        "longitude": -5.248055555555555
      }
    },
    {
      "SDOS": {
        "airport_name": "Banaer",
        "city": "SETE BARRAS",
        "latitude": -24.41916666666667,
        "longitude": -5.2555555555555555
      }
    },
    {
      "SIVW": {
        "airport_name": "Banaer de Jacupiranga",
        "city": "JACUPIRANGA",
        "latitude": -24.71,
        "longitude": -5.336666666666666
      }
    },
    {
      "SDMT": {
        "airport_name": "Banco Bradesco Av. Paulista",
        "city": "SÃO PAULO",
        "latitude": -23.56222222222222,
        "longitude": -5.075277777777778
      }
    },
    {
      "SIBG": {
        "airport_name": "Banco Induscred",
        "city": "SÃO PAULO",
        "latitude": -23.564444444444444,
        "longitude": -5.075555555555556
      }
    },
    {
      "SDSZ": {
        "airport_name": "Banco Safra",
        "city": "SÃO PAULO",
        "latitude": -23.558055555555555,
        "longitude": -5.075833333333333
      }
    },
    {
      "SWHH": {
        "airport_name": "Banco Santander",
        "city": "SÃO PAULO",
        "latitude": -23.590833333333332,
        "longitude": -5.069999999999999
      }
    },
    {
      "SSZE": {
        "airport_name": "Banco Sofisa",
        "city": "SÃO PAULO",
        "latitude": -23.56277777777778,
        "longitude": -5.075555555555556
      }
    },
    {
      "SWST": {
        "airport_name": "Bandeiras Centro Empresarial",
        "city": "VOTORANTIM",
        "latitude": -23.53666666666667,
        "longitude": -5.218055555555556
      }
    },
    {
      "SNGZ": {
        "airport_name": "Bardahl",
        "city": "CAJAMAR",
        "latitude": -23.340277777777775,
        "longitude": -5.084444444444444
      }
    },
    {
      "SDBY": {
        "airport_name": "Bariri",
        "city": "BARIRI",
        "latitude": -22.069166666666668,
        "longitude": -5.4061111111111115
      }
    },
    {
      "SDEK": {
        "airport_name": "Barra do Una",
        "city": "SÃO SEBASTIÃO",
        "latitude": -23.735833333333336,
        "longitude": -4.912222222222223
      }
    },
    {
      "SD4I": {
        "airport_name": "Base Armalite",
        "city": "ITU",
        "latitude": -23.279166666666665,
        "longitude": -5.200277777777778
      }
    },
    {
      "SBTA": {
        "airport_name": "Base de Aviação de Taubaté",
        "city": "TAUBATÉ",
        "latitude": -23.03888888888889,
        "longitude": -4.884722222222222
      }
    },
    {
      "SBTA": {
        "airport_name": "Base de Aviação de Taubaté",
        "city": "TAUBATÉ",
        "latitude": -23.03888888888889,
        "longitude": -4.884722222222222
      }
    },
    {
      "SIAE": {
        "airport_name": "BASF Guaratinguetá",
        "city": "GUARATINGUETÁ",
        "latitude": -22.78611111111111,
        "longitude": -4.8502777777777775
      }
    },
    {
      "SDBA": {
        "airport_name": "Batatais",
        "city": "BATATAIS",
        "latitude": -20.876944444444444,
        "longitude": -5.230555555555556
      }
    },
    {
      "SBBU": {
        "airport_name": "Bauru",
        "city": "BAURU",
        "latitude": -22.345,
        "longitude": -5.508611111111111
      }
    },
    {
      "SBAE": {
        "airport_name": "Bauru - Arealva",
        "city": "BAURU",
        "latitude": -22.157777777777778,
        "longitude": -5.511111111111111,
        "airspace_class": "CLASS D"
      }
    },
    {
      "SN7N": {
        "airport_name": "Bay Park",
        "city": "VINHEDO",
        "latitude": -23.073055555555555,
        "longitude": -5.166944444444445
      }
    },
    {
      "SDBB": {
        "airport_name": "Bebedouro",
        "city": "BEBEDOURO",
        "latitude": -20.900277777777777,
        "longitude": -5.389444444444445
      }
    },
    {
      "SNBQ": {
        "airport_name": "Bela Cintra",
        "city": "SÃO PAULO",
        "latitude": -23.55388888888889,
        "longitude": -5.075833333333333
      }
    },
    {
      "SDMB": {
        "airport_name": "Benteler",
        "city": "CAMPINAS",
        "latitude": -23.001944444444444,
        "longitude": -5.186111111111112
      }
    },
    {
      "SITO": {
        "airport_name": "Berrini One",
        "city": "SÃO PAULO",
        "latitude": -23.598333333333333,
        "longitude": -5.069999999999999
      }
    },
    {
      "SDGS": {
        "airport_name": "Bertolucci",
        "city": "SÃO PAULO",
        "latitude": -23.585855555555554,
        "longitude": -5.067777777777778
      }
    },
    {
      "SD2O": {
        "airport_name": "Bethaville Empresarial Itu",
        "city": "ITU",
        "latitude": -23.315833333333334,
        "longitude": -5.20888888888889
      }
    },
    {
      "SIIX": {
        "airport_name": "Bira Guimarães",
        "city": "IGARATÁ",
        "latitude": -23.19527777777778,
        "longitude": -5.015
      }
    },
    {
      "SDNN": {
        "airport_name": "Birmann 21",
        "city": "SÃO PAULO",
        "latitude": -23.56527777777778,
        "longitude": -5.072222222222222
      }
    },
    {
      "SJBG": {
        "airport_name": "Birmann 31",
        "city": "SÃO PAULO",
        "latitude": -23.59,
        "longitude": -5.0680555555555555
      }
    },
    {
      "SN66": {
        "airport_name": "Birmann 32",
        "city": "SÃO PAULO",
        "latitude": -23.589166666666664,
        "longitude": -5.0680555555555555
      }
    },
    {
      "SSIL": {
        "airport_name": "Blau Farmacêutica",
        "city": "COTIA",
        "latitude": -23.598055555555554,
        "longitude": -5.093055555555555
      }
    },
    {
      "SSOA": {
        "airport_name": "Blue Tree Tower Faria Lima",
        "city": "SÃO PAULO",
        "latitude": -23.59111111111111,
        "longitude": -5.0680555555555555
      }
    },
    {
      "SNGL": {
        "airport_name": "Boa Vista",
        "city": "PORTO FELIZ",
        "latitude": -23.331944444444446,
        "longitude": -5.225833333333333
      }
    },
    {
      "SI3I": {
        "airport_name": "Boa Vista Estates",
        "city": "PORTO FELIZ",
        "latitude": -23.32596388888889,
        "longitude": -5.225833333333333
      }
    },
    {
      "SWQA": {
        "airport_name": "Bonini",
        "city": "CAMPOS DO JORDÃO",
        "latitude": -22.73222222222222,
        "longitude": -4.892499999999999
      }
    },
    {
      "SDHB": {
        "airport_name": "Bradesco",
        "city": "OSASCO",
        "latitude": -23.548333333333336,
        "longitude": -5.083333333333333
      }
    },
    {
      "SDHO": {
        "airport_name": "Bradesco - Santo André",
        "city": "SANTO ANDRÉ",
        "latitude": -23.65583333333333,
        "longitude": -5.053888888888888
      }
    },
    {
      "SDBC": {
        "airport_name": "Bradesco Alphaville",
        "city": "BARUERI",
        "latitude": -23.4875,
        "longitude": -5.086666666666666
      }
    },
    {
      "SDGZ": {
        "airport_name": "Bradesco Cidade de Deus",
        "city": "OSASCO",
        "latitude": -23.549444444444447,
        "longitude": -5.083888888888889
      }
    },
    {
      "SIIR": {
        "airport_name": "Brascan Century Plaza",
        "city": "SÃO PAULO",
        "latitude": -23.584166666666665,
        "longitude": -5.0675
      }
    },
    {
      "SIDH": {
        "airport_name": "Brascan Century Plaza Green Valley Commercial",
        "city": "BARUERI",
        "latitude": -23.485555555555557,
        "longitude": -5.0874999999999995
      }
    },
    {
      "SDGO": {
        "airport_name": "Braspress",
        "city": "GUARULHOS",
        "latitude": -23.454166666666666,
        "longitude": -5.058333333333334
      }
    },
    {
      "SJVB": {
        "airport_name": "Bugio",
        "city": "PEDRINHAS PAULISTA",
        "latitude": -22.84861111111111,
        "longitude": -5.076388888888888
      }
    },
    {
      "SNDK": {
        "airport_name": "C.T.O. Itaú",
        "city": "SÃO PAULO",
        "latitude": -23.55777777777778,
        "longitude": -5.0680555555555555
      }
    },
    {
      "SNJW": {
        "airport_name": "Cabletech",
        "city": "CAÇAPAVA",
        "latitude": -23.17777777777778,
        "longitude": -4.909166666666667
      }
    },
    {
      "SWUS": {
        "airport_name": "Cacau Show",
        "city": "ITAPEVI",
        "latitude": -23.51833333333333,
        "longitude": -5.104166666666666
      }
    },
    {
      "SJ9Q": {
        "airport_name": "Caio - Induscar Indústria e Comércio de Carrocerias Ltda",
        "city": "GUARULHOS",
        "latitude": -23.450277777777778,
        "longitude": -5.053611111111111
      }
    },
    {
      "SDJ6": {
        "airport_name": "Cambury",
        "city": "SÃO SEBASTIÃO",
        "latitude": -23.76888888888889,
        "longitude": -4.905833333333333
      }
    },
    {
      "SBMT": {
        "airport_name": "CAMPO DE MARTE",
        "city": "SÃO PAULO",
        "latitude": -23.509166666666665,
        "longitude": -5.0725,
        "airspace_class": "CLASS C"
      }
    },
    {
      "SBGW": {
        "airport_name": "Campo Edu Chaves",
        "city": "GUARATINGUETÁ",
        "latitude": -22.791666666666668,
        "longitude": -4.855833333333333,
        "airspace_class": "CLASS D"
      }
    },
    {
      "SBYS": {
        "airport_name": "CAMPO FONTENELLE",
        "city": "PIRASSUNUNGA",
        "latitude": -21.984444444444446,
        "longitude": -5.200833333333334
      }
    },
    {
      "SDEI": {
        "airport_name": "Canopus Corporate Alphaville",
        "city": "BARUERI",
        "latitude": -23.503888888888888,
        "longitude": -5.084444444444444
      }
    },
    {
      "SDCA": {
        "airport_name": "Capão Bonito",
        "city": "CAPÃO BONITO",
        "latitude": -24.033611111111114,
        "longitude": -5.37
      }
    },
    {
      "SWMC": {
        "airport_name": "Capão da Cruz",
        "city": "LUÍS ANTÔNIO",
        "latitude": -21.458333333333332,
        "longitude": -5.258611111111111
      }
    },
    {
      "SJCI": {
        "airport_name": "Capitão PM Paulo José de Menezes Filho",
        "city": "SÃO JOSÉ DOS CAMPOS",
        "latitude": -23.194444444444446,
        "longitude": -4.922777777777778
      }
    },
    {
      "SDYA": {
        "airport_name": "Carmo Couri",
        "city": "SÃO PAULO",
        "latitude": -23.59611111111111,
        "longitude": -5.069722222222222
      }
    },
    {
      "SDVL": {
        "airport_name": "Casa da Pedra",
        "city": "PORTO FELIZ",
        "latitude": -23.335555555555555,
        "longitude": -5.214722222222222
      }
    },
    {
      "SDOK": {
        "airport_name": "Casas Bahia",
        "city": "JUNDIAÍ",
        "latitude": -23.23611111111111,
        "longitude": -5.0874999999999995
      }
    },
    {
      "SDGE": {
        "airport_name": "Casas Bahia",
        "city": "SÃO CAETANO DO SUL",
        "latitude": -23.611111111111114,
        "longitude": -5.061388888888889
      }
    },
    {
      "SWKM": {
        "airport_name": "Castelo Branco Office Park - Torre II",
        "city": "BARUERI",
        "latitude": -23.505277777777778,
        "longitude": -5.083611111111111
      }
    },
    {
      "SDCD": {
        "airport_name": "Catanduva",
        "city": "CATANDUVA",
        "latitude": -21.148611111111112,
        "longitude": -5.441944444444445
      }
    },
    {
      "SJYV": {
        "airport_name": "Cauê-Apiaí",
        "city": "APIAÍ",
        "latitude": -24.51722222222222,
        "longitude": -5.419444444444445
      }
    },
    {
      "SIET": {
        "airport_name": "CD 19",
        "city": "GUARUJÁ",
        "latitude": -23.955277777777777,
        "longitude": -5.02
      }
    },
    {
      "SIGK": {
        "airport_name": "CD Guarulhos",
        "city": "GUARULHOS",
        "latitude": -23.446666666666665,
        "longitude": -5.051111111111111
      }
    },
    {
      "SWPW": {
        "airport_name": "CEA-Caçapava",
        "city": "CAÇAPAVA",
        "latitude": -23.12666666666667,
        "longitude": -4.909444444444444
      }
    },
    {
      "SNSK": {
        "airport_name": "Central Ferraz",
        "city": "HERCULÂNDIA",
        "latitude": -21.86888888888889,
        "longitude": -5.039722222222222
      }
    },
    {
      "SJZY": {
        "airport_name": "Centro Administrativo Rio Negro",
        "city": "BARUERI",
        "latitude": -23.500555555555554,
        "longitude": -5.084722222222222
      }
    },
    {
      "SDJK": {
        "airport_name": "Centro Empresarial Araguaia",
        "city": "BARUERI",
        "latitude": -23.501944444444444,
        "longitude": -5.0841666666666665
      }
    },
    {
      "SSQY": {
        "airport_name": "Centro Empresarial de São Paulo",
        "city": "SÃO PAULO",
        "latitude": -23.65111111111111,
        "longitude": -5.076111111111111
      }
    },
    {
      "SDUI": {
        "airport_name": "Centro Empresarial Iudice",
        "city": "SÃO PAULO",
        "latitude": -23.51361111111111,
        "longitude": -5.070555555555555
      }
    },
    {
      "SDFO": {
        "airport_name": "Centro Gráfico - Folha",
        "city": "SANTANA DE PARNAÍBA",
        "latitude": -23.46638888888889,
        "longitude": -5.086944444444444
      }
    },
    {
      "SDOI": {
        "airport_name": "Centro Nacional de Pára-Quedismo",
        "city": "BOITUVA",
        "latitude": -23.298055555555557,
        "longitude": -5.236944444444444
      }
    },
    {
      "SDG6": {
        "airport_name": "Centro Tecnológico da Marinha em São Paulo - ARAMAR",
        "city": "SOROCABA",
        "latitude": -23.3975,
        "longitude": -47.60527777777778
      }
    },
    {
      "SWUF": {
        "airport_name": "Cervejaria Petrópolis",
        "city": "BOITUVA",
        "latitude": -23.258055555555554,
        "longitude": -5.2425
      }
    },
    {
      "SDHT": {
        "airport_name": "Cetenco Plaza - Torre Norte",
        "city": "SÃO PAULO",
        "latitude": -23.55888888888889,
        "longitude": -5.075555555555556
      }
    },
    {
      "SJ26": {
        "airport_name": "Chácara Messias",
        "city": "SANTA ISABEL",
        "latitude": -23.27861111111111,
        "longitude": -5.030833333333334
      }
    },
    {
      "SSMQ": {
        "airport_name": "Chácara Monte Alegre",
        "city": "MONTE ALEGRE DO SUL",
        "latitude": -22.69,
        "longitude": -5.0680555555555555
      }
    },
    {
      "SNBA": {
        "airport_name": "Chafei Amsei",
        "city": "BARRETOS",
        "latitude": -20.585555555555555,
        "longitude": -5.3983333333333325
      }
    },
    {
      "SSXL": {
        "airport_name": "Chendel",
        "city": "ATIBAIA",
        "latitude": -23.165277777777778,
        "longitude": -5.061944444444444
      }
    },
    {
      "SDQQ": {
        "airport_name": "Cia. Agrícola Quatá",
        "city": "QUATÁ",
        "latitude": -22.285555555555558,
        "longitude": -5.072777777777778
      }
    },
    {
      "SIVX": {
        "airport_name": "Cia. Brasileira de Alumínio",
        "city": "ALUMÍNIO",
        "latitude": -23.516666666666666,
        "longitude": -5.2
      }
    },
    {
      "SIES": {
        "airport_name": "Ciclade",
        "city": "SÃO SEBASTIÃO",
        "latitude": -23.76888888888889,
        "longitude": -4.905555555555555
      }
    },
    {
      "SDIA": {
        "airport_name": "Cidade",
        "city": "SÃO PAULO",
        "latitude": -23.545833333333334,
        "longitude": -5.070833333333333
      }
    },
    {
      "SDCV": {
        "airport_name": "Citibank",
        "city": "SÃO PAULO",
        "latitude": -23.565,
        "longitude": -5.075277777777778
      }
    },
    {
      "SDKI": {
        "airport_name": "CL",
        "city": "SÃO JOSÉ DOS CAMPOS",
        "latitude": -23.224999999999998,
        "longitude": -4.928333333333334
      }
    },
    {
      "SDF7": {
        "airport_name": "Clube Aeronáutico Avaré",
        "city": "AVARÉ",
        "latitude": -23.241111111111113,
        "longitude": -5.441666666666667
      }
    },
    {
      "SIVQ": {
        "airport_name": "Clube de Voo Aeroquadra",
        "city": "QUADRA",
        "latitude": -23.314722222222223,
        "longitude": -5.337222222222222
      }
    },
    {
      "SWVN": {
        "airport_name": "Clube de Voo Fazenda Novo Horizonte",
        "city": "ITU",
        "latitude": -23.173055555555557,
        "longitude": -5.2122222222222225
      }
    },
    {
      "SJL9": {
        "airport_name": "Clube de Vôo Fazenda Royal",
        "city": "ITAPETININGA",
        "latitude": -23.503055555555555,
        "longitude": -5.333333333333333
      }
    },
    {
      "SWCV": {
        "airport_name": "CMA",
        "city": "BARRETOS",
        "latitude": -20.56972222222222,
        "longitude": -5.403611111111111
      }
    },
    {
      "SJSW": {
        "airport_name": "Colinas Shopping",
        "city": "SÃO JOSÉ DOS CAMPOS",
        "latitude": -23.205277777777777,
        "longitude": -4.928333333333334
      }
    },
    {
      "SBJD": {
        "airport_name": "Comandante Rolim Adolfo Amaro",
        "city": "JUNDIAÍ",
        "latitude": -23.18166666666667,
        "longitude": -5.100833333333333,
        "airspace_class": "CLASS C"
      }
    },
    {
      "SJCA": {
        "airport_name": "Comandante Vittório Bonomi",
        "city": "MOCOCA",
        "latitude": -21.531666666666666,
        "longitude": -5.173333333333334
      }
    },
    {
      "SI8S": {
        "airport_name": "Comando G8",
        "city": "SÃO PAULO",
        "latitude": -23.472777777777775,
        "longitude": -5.072777777777778
      }
    },
    {
      "SJCL": {
        "airport_name": "Comando Piloto",
        "city": "SÃO JOSÉ DO RIO PARDO",
        "latitude": -21.616388888888892,
        "longitude": -5.089722222222222
      }
    },
    {
      "SIYB": {
        "airport_name": "Comercial Aquidabã",
        "city": "CAMPINAS",
        "latitude": -22.91111111111111,
        "longitude": -5.175277777777778
      }
    },
    {
      "SJWC": {
        "airport_name": "Cometa Vila Maria",
        "city": "SÃO PAULO",
        "latitude": -23.51722222222222,
        "longitude": -5.062222222222222
      }
    },
    {
      "SI74": {
        "airport_name": "Company",
        "city": "SÃO PAULO",
        "latitude": -23.572777777777777,
        "longitude": -5.0725
      }
    },
    {
      "SDVU": {
        "airport_name": "Conde Francisco Matarazzo",
        "city": "SÃO PAULO",
        "latitude": -23.563333333333333,
        "longitude": -5.075277777777778
      }
    },
    {
      "SNDD": {
        "airport_name": "Condomínio Aeronáutico Santos Dumont",
        "city": "ELIAS FAUSTO",
        "latitude": -23.068055555555556,
        "longitude": -5.20888888888889
      }
    },
    {
      "SDKD": {
        "airport_name": "Condomínio América Business Park",
        "city": "SÃO PAULO",
        "latitude": -23.61861111111111,
        "longitude": -5.0725
      }
    },
    {
      "SDNP": {
        "airport_name": "Condomínio Conde Matarazzo",
        "city": "SÃO PAULO",
        "latitude": -23.547777777777778,
        "longitude": -5.0725
      }
    },
    {
      "SIYZ": {
        "airport_name": "Condomínio Edifício Berrini 1681",
        "city": "SÃO PAULO",
        "latitude": -23.61138888888889,
        "longitude": -5.070555555555555
      }
    },
    {
      "SIGO": {
        "airport_name": "Condomínio Edifício Paulista Plaza",
        "city": "SÃO PAULO",
        "latitude": -23.57361111111111,
        "longitude": -5.073055555555555
      }
    },
    {
      "SDFW": {
        "airport_name": "Condomínio Edifício San Paolo",
        "city": "SÃO PAULO",
        "latitude": -23.575,
        "longitude": -5.069722222222222
      }
    },
    {
      "SDEL": {
        "airport_name": "Condomínio Edifício Spazio JK",
        "city": "SÃO PAULO",
        "latitude": -23.59111111111111,
        "longitude": -5.069444444444445
      }
    },
    {
      "SSIZ": {
        "airport_name": "Condomínio Fazenda da Grama",
        "city": "ITUPEVA",
        "latitude": -23.059166666666666,
        "longitude": -5.176111111111111
      }
    },
    {
      "SJE9": {
        "airport_name": "Condomínio Global Tech",
        "city": "CAMPINAS",
        "latitude": -22.811111111111114,
        "longitude": -5.173611111111112
      }
    },
    {
      "SDAL": {
        "airport_name": "Condomínio Guaporé II",
        "city": "RIBEIRÃO PRETO",
        "latitude": -21.226666666666667,
        "longitude": -5.251388888888889
      }
    },
    {
      "SIRU": {
        "airport_name": "Condomínio Trio Ribeirão",
        "city": "RIBEIRÃO PRETO",
        "latitude": -21.199722222222224,
        "longitude": -5.256111111111111
      }
    },
    {
      "SJCD": {
        "airport_name": "Condomínio Vitassay",
        "city": "BOITUVA",
        "latitude": -23.3075,
        "longitude": -5.2427777777777775
      }
    },
    {
      "SBSP": {
        "airport_name": "Congonhas - Deputado Freitas Nobre",
        "city": "SÃO PAULO",
        "latitude": -23.62611111111111,
        "longitude": -5.075555555555556,
        "airspace_class": "CLASS A"
      }
    },
    {
      "SWHX": {
        "airport_name": "Conjunto Hospitalar do Mandaqui",
        "city": "SÃO PAULO",
        "latitude": -23.485,
        "longitude": -5.070833333333333
      }
    },
    {
      "SNKP": {
        "airport_name": "Conquista do Pontal",
        "city": "MIRANTE DO PARANAPANEMA",
        "latitude": -22.383888888888887,
        "longitude": -5.350555555555555
      }
    },
    {
      "SSCS": {
        "airport_name": "Continental Square",
        "city": "SÃO PAULO",
        "latitude": -23.59583333333333,
        "longitude": -5.069444444444445
      }
    },
    {
      "SDMN": {
        "airport_name": "Continental Tower",
        "city": "SÃO PAULO",
        "latitude": -23.601666666666667,
        "longitude": -5.070833333333333
      }
    },
    {
      "SIZE": {
        "airport_name": "Coppersteel Bimetálicos",
        "city": "CAMPINAS",
        "latitude": -22.996666666666666,
        "longitude": -5.1866666666666665
      }
    },
    {
      "SIER": {
        "airport_name": "Cosan",
        "city": "PIRACICABA",
        "latitude": -22.633055555555558,
        "longitude": -5.2363888888888885
      }
    },
    {
      "SWOJ": {
        "airport_name": "Coudelaria Rocas do Vouga",
        "city": "ITU",
        "latitude": -23.298055555555557,
        "longitude": -5.211388888888889
      }
    },
    {
      "SJUW": {
        "airport_name": "CPFL Sede",
        "city": "CAMPINAS",
        "latitude": -22.85777777777778,
        "longitude": -5.173333333333334
      }
    },
    {
      "SDVV": {
        "airport_name": "Cragea-Suzano",
        "city": "SUZANO",
        "latitude": -23.641944444444444,
        "longitude": -5.042222222222223
      }
    },
    {
      "SSXT": {
        "airport_name": "Cristal",
        "city": "BORÁ",
        "latitude": -22.182222222222222,
        "longitude": -5.059166666666666
      }
    },
    {
      "SJOQ": {
        "airport_name": "Cristália",
        "city": "ITAPIRA",
        "latitude": -22.467777777777776,
        "longitude": -5.075
      }
    },
    {
      "SDTM": {
        "airport_name": "Crystal Tower",
        "city": "BARUERI",
        "latitude": -23.493333333333336,
        "longitude": -5.086388888888888
      }
    },
    {
      "SWDH": {
        "airport_name": "Damha Golfe",
        "city": "SÃO CARLOS",
        "latitude": -21.95111111111111,
        "longitude": -5.259722222222222
      }
    },
    {
      "SDG9": {
        "airport_name": "Delegacia da Capitania dos Portos em São Sebastião",
        "city": "SÃO SEBASTIÃO",
        "latitude": -23.80666666666667,
        "longitude": -4.876388888888889
      }
    },
    {
      "SIDL": {
        "airport_name": "Deus é Amor",
        "city": "SÃO PAULO",
        "latitude": -23.555833333333332,
        "longitude": -5.069999999999999
      }
    },
    {
      "SIEU": {
        "airport_name": "Diamante",
        "city": "JAÚ",
        "latitude": -22.373333333333335,
        "longitude": -5.403611111111111
      }
    },
    {
      "SIHD": {
        "airport_name": "Divena",
        "city": "SÃO PAULO",
        "latitude": -23.598333333333333,
        "longitude": -5.069999999999999
      }
    },
    {
      "SWWD": {
        "airport_name": "Dom Pedro Business Park",
        "city": "ATIBAIA",
        "latitude": -23.050555555555555,
        "longitude": -5.067222222222222
      }
    },
    {
      "SDVG": {
        "airport_name": "Domingos Pignatari",
        "city": "VOTUPORANGA",
        "latitude": -20.45722222222222,
        "longitude": -5.0
      }
    },
    {
      "SSWH": {
        "airport_name": "Dr. Emílio Fehr",
        "city": "SÃO CARLOS",
        "latitude": -21.906666666666666,
        "longitude": -5.258611111111112
      }
    },
    {
      "SIII": {
        "airport_name": "Dr. Heráclito da Motta Luiz",
        "city": "GUAÍRA",
        "latitude": -20.43305555555556,
        "longitude": -5.358888888888888
      }
    },
    {
      "SDJA": {
        "airport_name": "Dr. José Augusto de Arruda Botelho",
        "city": "ITIRAPINA",
        "latitude": -22.19472222222222,
        "longitude": -5.253888888888889
      }
    },
    {
      "SDDR": {
        "airport_name": "Dracena",
        "city": "DRACENA",
        "latitude": -21.460555555555555,
        "longitude": -5.233888888888889
      }
    },
    {
      "SIBS": {
        "airport_name": "E-Business Bosque",
        "city": "SÃO PAULO",
        "latitude": -23.511944444444445,
        "longitude": -5.073055555555555
      }
    },
    {
      "SJWZ": {
        "airport_name": "E-Tower",
        "city": "SÃO PAULO",
        "latitude": -23.593888888888888,
        "longitude": -5.069999999999999
      }
    },
    {
      "SDEF": {
        "airport_name": "Eco Fly",
        "city": "FERRAZ DE VASCONCELOS",
        "latitude": -23.53222222222222,
        "longitude": -5.041944444444444
      }
    },
    {
      "SNRF": {
        "airport_name": "Ecofabril",
        "city": "JUNDIAÍ",
        "latitude": -23.175555555555558,
        "longitude": -5.1002777777777775
      }
    },
    {
      "SJC8": {
        "airport_name": "Ecoforte",
        "city": "MOGI GUAÇU",
        "latitude": -22.30027777777778,
        "longitude": -5.106944444444444
      }
    },
    {
      "SJUE": {
        "airport_name": "Ecological Center",
        "city": "BARUERI",
        "latitude": -23.535,
        "longitude": -5.089722222222222
      }
    },
    {
      "SIEE": {
        "airport_name": "Ecovias Imigrantes",
        "city": "SÃO BERNARDO DO CAMPO",
        "latitude": -23.784444444444446,
        "longitude": -5.0649999999999995
      }
    },
    {
      "SNZJ": {
        "airport_name": "Edifício América",
        "city": "ARARAQUARA",
        "latitude": -21.805,
        "longitude": -5.350555555555555
      }
    },
    {
      "SDTJ": {
        "airport_name": "Edifício Atrium V",
        "city": "SÃO PAULO",
        "latitude": -23.59472222222222,
        "longitude": -5.069444444444445
      }
    },
    {
      "SIBB": {
        "airport_name": "Edifício Comendador Alberto Bonfiglioli",
        "city": "SÃO PAULO",
        "latitude": -23.564444444444444,
        "longitude": -5.075
      }
    },
    {
      "SIMM": {
        "airport_name": "Edifício Corporate Park",
        "city": "SÃO PAULO",
        "latitude": -23.5875,
        "longitude": -5.067222222222222
      }
    },
    {
      "SDKT": {
        "airport_name": "Edifício Dacon",
        "city": "SÃO PAULO",
        "latitude": -23.580555555555556,
        "longitude": -5.069444444444445
      }
    },
    {
      "SIDA": {
        "airport_name": "Edifício Dakota",
        "city": "SÃO PAULO",
        "latitude": -23.594444444444445,
        "longitude": -5.069444444444445
      }
    },
    {
      "SIJF": {
        "airport_name": "Edifício Faria Lima Financial Center",
        "city": "SÃO PAULO",
        "latitude": -23.58611111111111,
        "longitude": -5.069444444444445
      }
    },
    {
      "SDEA": {
        "airport_name": "Edifício HSBC Tower",
        "city": "SÃO PAULO",
        "latitude": -23.583055555555557,
        "longitude": -5.069444444444445
      }
    },
    {
      "SNEX": {
        "airport_name": "Edifício Luxor",
        "city": "SOROCABA",
        "latitude": -23.519444444444442,
        "longitude": -5.220555555555555
      }
    },
    {
      "SDOF": {
        "airport_name": "Edifício Palladio",
        "city": "SÃO PAULO",
        "latitude": -23.59472222222222,
        "longitude": -5.069444444444445
      }
    },
    {
      "SDPB": {
        "airport_name": "Edifício Prime Business Center",
        "city": "FRANCA",
        "latitude": -20.53611111111111,
        "longitude": -5.208888888888889
      }
    },
    {
      "SIYU": {
        "airport_name": "Edifício Ronaldo Sampaio Ferreira",
        "city": "SÃO PAULO",
        "latitude": -23.601666666666667,
        "longitude": -5.070277777777777
      }
    },
    {
      "SDHY": {
        "airport_name": "Edifício São Luís Gonzaga",
        "city": "SÃO PAULO",
        "latitude": -23.55666666666667,
        "longitude": -5.076111111111111
      }
    },
    {
      "SDIW": {
        "airport_name": "Edifício São Paulo Trade Building",
        "city": "SÃO PAULO",
        "latitude": -23.594166666666666,
        "longitude": -5.069999999999999
      }
    },
    {
      "SNEO": {
        "airport_name": "Edifício Sequóia",
        "city": "RIBEIRÃO PRETO",
        "latitude": -21.218888888888888,
        "longitude": -5.255833333333333
      }
    },
    {
      "SJIG": {
        "airport_name": "Edifício Times Square Business",
        "city": "RIBEIRÃO PRETO",
        "latitude": -21.20638888888889,
        "longitude": -5.256388888888889
      }
    },
    {
      "SJBI": {
        "airport_name": "Edra",
        "city": "IPEÚNA",
        "latitude": -22.440277777777776,
        "longitude": -5.2375
      }
    },
    {
      "SJXK": {
        "airport_name": "Eldorado",
        "city": "SÃO PAULO",
        "latitude": -23.573055555555555,
        "longitude": -5.070833333333333
      }
    },
    {
      "SNAQ": {
        "airport_name": "Elisa",
        "city": "JARINU",
        "latitude": -23.154722222222222,
        "longitude": -5.084444444444444
      }
    },
    {
      "SIIG": {
        "airport_name": "Elisa Camargo de Arruda Botelho",
        "city": "RANCHARIA",
        "latitude": -22.361111111111114,
        "longitude": -5.183333333333334
      }
    },
    {
      "SNRE": {
        "airport_name": "Ellece",
        "city": "GUARULHOS",
        "latitude": -23.47222222222222,
        "longitude": -5.048611111111111
      }
    },
    {
      "SDEU": {
        "airport_name": "Empresarial Anhanguera",
        "city": "CAJAMAR",
        "latitude": -23.384722222222223,
        "longitude": -5.093055555555555
      }
    },
    {
      "SDOP": {
        "airport_name": "EMS Sigma Pharma 2",
        "city": "HORTOLÂNDIA",
        "latitude": -22.895833333333332,
        "longitude": -5.1866666666666665
      }
    },
    {
      "SDXT": {
        "airport_name": "Encontro das Águas",
        "city": "SÃO MANUEL",
        "latitude": -22.615000000000002,
        "longitude": -5.375277777777778
      }
    },
    {
      "SNPE": {
        "airport_name": "Engenho DÁgua",
        "city": "ILHABELA",
        "latitude": -23.792222222222225,
        "longitude": -4.870277777777778
      }
    },
    {
      "SWEG": {
        "airport_name": "Engevix",
        "city": "BARUERI",
        "latitude": -23.5025,
        "longitude": -5.092777777777777
      }
    },
    {
      "SIFP": {
        "airport_name": "EPCCO",
        "city": "REGISTRO",
        "latitude": -24.52472222222222,
        "longitude": -5.252777777777778
      }
    },
    {
      "SIKC": {
        "airport_name": "Erik",
        "city": "MAIRIPORÃ",
        "latitude": -23.299166666666668,
        "longitude": -5.0649999999999995
      }
    },
    {
      "SDUB": {
        "airport_name": "Estadual Gastão Madeira",
        "city": "UBATUBA",
        "latitude": -23.441388888888888,
        "longitude": -4.845277777777778
      }
    },
    {
      "SNFK": {
        "airport_name": "Estância Colorado",
        "city": "SALES OLIVEIRA",
        "latitude": -20.75861111111111,
        "longitude": -5.253888888888889
      }
    },
    {
      "SNOI": {
        "airport_name": "Estância Irmãos Martins",
        "city": "TUPÃ",
        "latitude": -22.005,
        "longitude": -5.058888888888889
      }
    },
    {
      "SJAM": {
        "airport_name": "Estância Lajota",
        "city": "MAIRIPORÃ",
        "latitude": -23.248333333333335,
        "longitude": -5.061388888888889
      }
    },
    {
      "SDEM": {
        "airport_name": "Estância Machado",
        "city": "ÁLVARES MACHADO",
        "latitude": -22.10527777777778,
        "longitude": -5.219722222222223
      }
    },
    {
      "SD2I": {
        "airport_name": "Estância Rancharia Aviação",
        "city": "RANCHARIA",
        "latitude": -22.175555555555558,
        "longitude": -5.095
      }
    },
    {
      "SDGD": {
        "airport_name": "Eucatex-Botucatú",
        "city": "BOTUCATU",
        "latitude": -22.99416666666667,
        "longitude": -5.394444444444444
      }
    },
    {
      "SJEY": {
        "airport_name": "Eurofarma Laboratórios S.A",
        "city": "ITAPEVI",
        "latitude": -23.51888888888889,
        "longitude": -5.10361111111111
      }
    },
    {
      "SDEG": {
        "airport_name": "Evolution Corporate",
        "city": "BARUERI",
        "latitude": -23.504444444444445,
        "longitude": -5.086111111111111
      }
    },
    {
      "SJBO": {
        "airport_name": "EZ Towers B",
        "city": "SÃO PAULO",
        "latitude": -23.627222222222223,
        "longitude": -5.072222222222222
      }
    },
    {
      "SJOZ": {
        "airport_name": "Faria Lima Square",
        "city": "SÃO PAULO",
        "latitude": -23.58861111111111,
        "longitude": -5.0680555555555555
      }
    },
    {
      "SNRN": {
        "airport_name": "Fazenda 20 de Maio",
        "city": "GETULINA",
        "latitude": -21.80888888888889,
        "longitude": -5.605833333333333
      }
    },
    {
      "SWAM": {
        "airport_name": "Fazenda Agropecuária Gomes",
        "city": "TAQUARITUBA",
        "latitude": -23.648055555555555,
        "longitude": -5.525
      }
    },
    {
      "SD2W": {
        "airport_name": "Fazenda Aguapeí",
        "city": "VALPARAÍSO",
        "latitude": -21.21222222222222,
        "longitude": -5.101111111111111
      }
    },
    {
      "SDFH": {
        "airport_name": "Fazenda Amália",
        "city": "SANTA ROSA DE VITERBO",
        "latitude": -21.445,
        "longitude": -5.2058333333333335
      }
    },
    {
      "SDGY": {
        "airport_name": "Fazenda Anhangaí",
        "city": "ARAÇATUBA",
        "latitude": -20.927500000000002,
        "longitude": -5.078611111111111
      }
    },
    {
      "SDZU": {
        "airport_name": "Fazenda Anhumas",
        "city": "MARABÁ PAULISTA",
        "latitude": -22.1225,
        "longitude": -5.354166666666666
      }
    },
    {
      "SD9X": {
        "airport_name": "Fazenda Aparecida",
        "city": "BEBEDOURO",
        "latitude": -21.039722222222224,
        "longitude": -5.386111111111111
      }
    },
    {
      "SNAF": {
        "airport_name": "Fazenda Aparecida",
        "city": "PENÁPOLIS",
        "latitude": -21.498055555555556,
        "longitude": -5.016666666666667
      }
    },
    {
      "SD8T": {
        "airport_name": "Fazenda Araras",
        "city": "ITAÍ",
        "latitude": -23.309444444444445,
        "longitude": -5.511666666666667
      }
    },
    {
      "SIYE": {
        "airport_name": "Fazenda Barra do Agudo",
        "city": "MORRO AGUDO",
        "latitude": -20.810277777777777,
        "longitude": -5.358888888888888
      }
    },
    {
      "SDJ8": {
        "airport_name": "Fazenda Barra Longa",
        "city": "BOTUCATU",
        "latitude": -22.83138888888889,
        "longitude": -5.375000000000001
      }
    },
    {
      "SDWN": {
        "airport_name": "Fazenda Barreiro Grande",
        "city": "COLÔMBIA",
        "latitude": -20.348055555555554,
        "longitude": -5.4175
      }
    },
    {
      "SIWW": {
        "airport_name": "Fazenda Barreiros",
        "city": "ILHABELA",
        "latitude": -23.765555555555554,
        "longitude": -4.868055555555556
      }
    },
    {
      "SSQB": {
        "airport_name": "Fazenda Barrinha",
        "city": "ESPÍRITO SANTO DO PINHAL",
        "latitude": -22.123333333333335,
        "longitude": -5.0874999999999995
      }
    },
    {
      "SJWB": {
        "airport_name": "Fazenda Bartira",
        "city": "RANCHARIA",
        "latitude": -22.16472222222222,
        "longitude": -5.104166666666666
      }
    },
    {
      "SSYB": {
        "airport_name": "Fazenda Bela Manhã",
        "city": "SANTA CLARA DOESTE",
        "latitude": -20.017777777777777,
        "longitude": -5.092499999999999
      }
    },
    {
      "SITM": {
        "airport_name": "Fazenda Bela Vista",
        "city": "PANORAMA",
        "latitude": -21.4175,
        "longitude": -5.259444444444444
      }
    },
    {
      "SN2X": {
        "airport_name": "Fazenda Belvedere",
        "city": "TEJUPÁ",
        "latitude": -23.2875,
        "longitude": -5.528333333333333
      }
    },
    {
      "SSMV": {
        "airport_name": "Fazenda Boa Vista",
        "city": "PIRASSUNUNGA",
        "latitude": -22.044722222222223,
        "longitude": -5.225833333333333
      }
    },
    {
      "SNTK": {
        "airport_name": "Fazenda Bom Retiro",
        "city": "QUINTANA",
        "latitude": -22.176944444444445,
        "longitude": -5.041944444444444
      }
    },
    {
      "SIBC": {
        "airport_name": "Fazenda Bonança",
        "city": "PEREIRA BARRETO",
        "latitude": -20.67638888888889,
        "longitude": -5.170833333333333
      }
    },
    {
      "SJNI": {
        "airport_name": "Fazenda Buriti",
        "city": "VALENTIM GENTIL",
        "latitude": -20.479999999999997,
        "longitude": -5.019722222222222
      }
    },
    {
      "SDMY": {
        "airport_name": "Fazenda Cambuhy",
        "city": "MATÃO",
        "latitude": -21.63277777777778,
        "longitude": -5.390000000000001
      }
    },
    {
      "SDCL": {
        "airport_name": "Fazenda Campo Alegre",
        "city": "CERQUEIRA CÉSAR",
        "latitude": -23.154166666666665,
        "longitude": -5.523055555555556
      }
    },
    {
      "SICC": {
        "airport_name": "Fazenda Campo Alto",
        "city": "ARARAS",
        "latitude": -22.38888888888889,
        "longitude": -5.203055555555556
      }
    },
    {
      "SDKO": {
        "airport_name": "Fazenda Campo Grande",
        "city": "COLÔMBIA",
        "latitude": -20.25777777777778,
        "longitude": -5.419722222222223
      }
    },
    {
      "SDVA": {
        "airport_name": "Fazenda Campo Vitória",
        "city": "VARGEM GRANDE DO SUL",
        "latitude": -21.842777777777776,
        "longitude": -5.0986111111111105
      }
    },
    {
      "SWNY": {
        "airport_name": "Fazenda Canaã",
        "city": "LUÍS ANTÔNIO",
        "latitude": -21.534444444444446,
        "longitude": -5.2363888888888885
      }
    },
    {
      "SDRU": {
        "airport_name": "Fazenda Caramuru",
        "city": "INÚBIA PAULISTA",
        "latitude": -21.693333333333335,
        "longitude": -5.1
      }
    },
    {
      "SDTO": {
        "airport_name": "Fazenda Cataco",
        "city": "UBARANA",
        "latitude": -21.255277777777778,
        "longitude": -5.587222222222222
      }
    },
    {
      "SWQI": {
        "airport_name": "Fazenda Caturama",
        "city": "ZACARIAS",
        "latitude": -21.113611111111112,
        "longitude": -5.006111111111111
      }
    },
    {
      "SDIP": {
        "airport_name": "Fazenda Centro de Vôo a Vela Ipuã",
        "city": "CAÇAPAVA",
        "latitude": -23.043333333333337,
        "longitude": -4.9175
      }
    },
    {
      "SJAW": {
        "airport_name": "Fazenda Citrícola",
        "city": "GAVIÃO PEIXOTO",
        "latitude": -21.724444444444444,
        "longitude": -5.373055555555556
      }
    },
    {
      "SDFC": {
        "airport_name": "Fazenda Constância",
        "city": "ALTAIR",
        "latitude": -20.48888888888889,
        "longitude": -5.52
      }
    },
    {
      "SWBP": {
        "airport_name": "Fazenda Continental",
        "city": "COLÔMBIA",
        "latitude": -20.241111111111113,
        "longitude": -5.409166666666666
      }
    },
    {
      "SDRA": {
        "airport_name": "Fazenda das Represas",
        "city": "SÃO MIGUEL ARCANJO",
        "latitude": -23.877222222222223,
        "longitude": -5.341666666666667
      }
    },
    {
      "SJ9Z": {
        "airport_name": "Fazenda Dois Irmãos",
        "city": "TAQUARITUBA",
        "latitude": -23.634444444444444,
        "longitude": -5.523333333333333
      }
    },
    {
      "SIGL": {
        "airport_name": "Fazenda Dumont - Chiquinho Ribeiro",
        "city": "BRAGANÇA PAULISTA",
        "latitude": -23.006666666666668,
        "longitude": -5.073333333333333
      }
    },
    {
      "SDER": {
        "airport_name": "Fazenda Entre Rios",
        "city": "SUD MENNUCCI",
        "latitude": -20.765555555555554,
        "longitude": -5.086388888888888
      }
    },
    {
      "SDEO": {
        "airport_name": "Fazenda Entre Rios",
        "city": "IBITINGA",
        "latitude": -21.878611111111113,
        "longitude": -5.409166666666666
      }
    },
    {
      "SIHP": {
        "airport_name": "Fazenda Esperança",
        "city": "ITAPEVA",
        "latitude": -23.8675,
        "longitude": -5.422777777777778
      }
    },
    {
      "SJQJ": {
        "airport_name": "Fazenda Fortaleza",
        "city": "JABORANDI",
        "latitude": -20.59583333333333,
        "longitude": -5.372777777777778
      }
    },
    {
      "SSQK": {
        "airport_name": "Fazenda Gávea",
        "city": "CERQUEIRA CÉSAR",
        "latitude": -23.224999999999998,
        "longitude": -5.517777777777778
      }
    },
    {
      "SJOW": {
        "airport_name": "Fazenda Guadalupe",
        "city": "SANTO ANTÔNIO DO ARACANGUÁ",
        "latitude": -20.983888888888888,
        "longitude": -5.053611111111111
      }
    },
    {
      "SJRS": {
        "airport_name": "Fazenda Guanabara",
        "city": "JUNQUEIRÓPOLIS",
        "latitude": -21.34361111111111,
        "longitude": -5.211388888888889
      }
    },
    {
      "SIOB": {
        "airport_name": "Fazenda Guanabara",
        "city": "ANDRADINA",
        "latitude": -20.819166666666668,
        "longitude": -5.2
      }
    },
    {
      "SDEJ": {
        "airport_name": "Fazenda Guará do Pinhal",
        "city": "ITAPETININGA",
        "latitude": -23.66583333333333,
        "longitude": -5.345
      }
    },
    {
      "SDGI": {
        "airport_name": "Fazenda Guariroba S/A",
        "city": "CAMPINAS",
        "latitude": -22.922777777777778,
        "longitude": -5.095
      }
    },
    {
      "SJE2": {
        "airport_name": "Fazenda Gurucaia",
        "city": "GUARARAPES",
        "latitude": -21.494444444444447,
        "longitude": -5.0777777777777775
      }
    },
    {
      "SDHE": {
        "airport_name": "Fazenda Herdade",
        "city": "ITAPIRA",
        "latitude": -22.491666666666667,
        "longitude": -5.0841666666666665
      }
    },
    {
      "SIEA": {
        "airport_name": "Fazenda Ibiporã",
        "city": "GUARARAPES",
        "latitude": -21.46638888888889,
        "longitude": -5.0874999999999995
      }
    },
    {
      "SWXY": {
        "airport_name": "Fazenda Igurê",
        "city": "GÁLIA",
        "latitude": -22.251666666666665,
        "longitude": -5.567222222222222
      }
    },
    {
      "SDIH": {
        "airport_name": "Fazenda Irohy",
        "city": "BIRITIBA-MIRIM",
        "latitude": -23.565555555555555,
        "longitude": -5.011388888888889
      }
    },
    {
      "SDW3": {
        "airport_name": "Fazenda Itanguá",
        "city": "ITAPEVA",
        "latitude": -24.029722222222222,
        "longitude": -5.439444444444445
      }
    },
    {
      "SWHU": {
        "airport_name": "Fazenda Izaura - Usina Cocal",
        "city": "RANCHARIA",
        "latitude": -22.506666666666668,
        "longitude": -5.0874999999999995
      }
    },
    {
      "SSRW": {
        "airport_name": "Fazenda J Campos",
        "city": "PORANGABA",
        "latitude": -23.203055555555554,
        "longitude": -5.3502777777777775
      }
    },
    {
      "SIJG": {
        "airport_name": "Fazenda Jaguaretê",
        "city": "GUARARAPES",
        "latitude": -21.4425,
        "longitude": -5.075833333333333
      }
    },
    {
      "SWAN": {
        "airport_name": "Fazenda Jamaica",
        "city": "POMPÉIA",
        "latitude": -22.184444444444445,
        "longitude": -5.034166666666667
      }
    },
    {
      "SDJF": {
        "airport_name": "Fazenda Jequitibá",
        "city": "BURI",
        "latitude": -23.84611111111111,
        "longitude": -5.384722222222223
      }
    },
    {
      "SJYY": {
        "airport_name": "Fazenda Jequitibá",
        "city": "PORTO FELIZ",
        "latitude": -23.253611111111113,
        "longitude": -5.233888888888889
      }
    },
    {
      "SDHC": {
        "airport_name": "Fazenda Koga",
        "city": "GETULINA",
        "latitude": -21.87,
        "longitude": -5.606944444444444
      }
    },
    {
      "SIZL": {
        "airport_name": "Fazenda Lagoa",
        "city": "SÃO PEDRO DO TURVO",
        "latitude": -22.747777777777777,
        "longitude": -5.584444444444444
      }
    },
    {
      "SSYK": {
        "airport_name": "Fazenda Mandaçaia",
        "city": "BURI",
        "latitude": -23.62388888888889,
        "longitude": -5.3925
      }
    },
    {
      "SBQZ": {
        "airport_name": "Fazenda Mariane",
        "city": "BROTAS",
        "latitude": -22.240277777777777,
        "longitude": -5.375
      }
    },
    {
      "SDA4": {
        "airport_name": "Fazenda Maristela",
        "city": "TREMEMBÉ",
        "latitude": -22.954722222222223,
        "longitude": -4.900277777777777
      }
    },
    {
      "SSUK": {
        "airport_name": "Fazenda Menina",
        "city": "ITAPURA",
        "latitude": -20.64,
        "longitude": -5.223055555555556
      }
    },
    {
      "SDMV": {
        "airport_name": "Fazenda Morro Vermelho",
        "city": "JAÚ",
        "latitude": -22.274444444444445,
        "longitude": -5.400277777777777
      }
    },
    {
      "SDOR": {
        "airport_name": "Fazenda Mosquito",
        "city": "ORLÂNDIA",
        "latitude": -20.747500000000002,
        "longitude": -5.2588888888888885
      }
    },
    {
      "SDFJ": {
        "airport_name": "Fazenda Murungaba",
        "city": "TIETÊ",
        "latitude": -22.95138888888889,
        "longitude": -5.248055555555555
      }
    },
    {
      "SSNF": {
        "airport_name": "Fazenda Naisa",
        "city": "COLÔMBIA",
        "latitude": -20.329722222222223,
        "longitude": -5.423055555555556
      }
    },
    {
      "SINK": {
        "airport_name": "Fazenda Negrinha",
        "city": "PARAPUÃ",
        "latitude": -21.87472222222222,
        "longitude": -5.089444444444444
      }
    },
    {
      "SDSM": {
        "airport_name": "Fazenda Nossa Senhora da Conceição",
        "city": "SÃO MANUEL",
        "latitude": -22.758333333333333,
        "longitude": -5.389722222222222
      }
    },
    {
      "SJNA": {
        "airport_name": "Fazenda Nova Aliança",
        "city": "GLICÉRIO",
        "latitude": -21.328333333333333,
        "longitude": -5.020277777777777
      }
    },
    {
      "SDND": {
        "airport_name": "Fazenda Nova Damasco",
        "city": "NARANDIBA",
        "latitude": -22.48222222222222,
        "longitude": -5.220555555555555
      }
    },
    {
      "SDQG": {
        "airport_name": "Fazenda Nova Floresta",
        "city": "CAIABU",
        "latitude": -21.892222222222223,
        "longitude": -5.184444444444445
      }
    },
    {
      "SNPL": {
        "airport_name": "Fazenda Pacuruxu",
        "city": "SANTA MERCEDES",
        "latitude": -21.25638888888889,
        "longitude": -5.2427777777777775
      }
    },
    {
      "SJH7": {
        "airport_name": "Fazenda Paineiras",
        "city": "ARANDU",
        "latitude": -23.14361111111111,
        "longitude": -5.503888888888889
      }
    },
    {
      "SDDX": {
        "airport_name": "Fazenda Paiquerê",
        "city": "POPULINA",
        "latitude": -19.884166666666665,
        "longitude": -5.050277777777778
      }
    },
    {
      "SDAF": {
        "airport_name": "Fazenda Palmeiras",
        "city": "ANALÂNDIA",
        "latitude": -22.156666666666666,
        "longitude": -5.241666666666667
      }
    },
    {
      "SIQF": {
        "airport_name": "Fazenda Palmital",
        "city": "MORRO AGUDO",
        "latitude": -20.69611111111111,
        "longitude": -5.369722222222222
      }
    },
    {
      "SDCW": {
        "airport_name": "Fazenda Paloma",
        "city": "COLÔMBIA",
        "latitude": -20.32138888888889,
        "longitude": -5.416666666666667
      }
    },
    {
      "SSEF": {
        "airport_name": "Fazenda Passaredo",
        "city": "CAJURU",
        "latitude": -21.326944444444443,
        "longitude": -5.1930555555555555
      }
    },
    {
      "SNKA": {
        "airport_name": "Fazenda Perto D´água",
        "city": "AVARÉ",
        "latitude": -23.253888888888888,
        "longitude": -5.428333333333334
      }
    },
    {
      "SWOX": {
        "airport_name": "Fazenda Pixoxó",
        "city": "SÃO CARLOS",
        "latitude": -21.779999999999998,
        "longitude": -5.256944444444445
      }
    },
    {
      "SDFU": {
        "airport_name": "Fazenda Ponte Funda",
        "city": "PRESIDENTE EPITÁCIO",
        "latitude": -21.870555555555555,
        "longitude": -5.359444444444444
      }
    },
    {
      "SI6Y": {
        "airport_name": "Fazenda Por do Sol",
        "city": "SARUTAIÁ",
        "latitude": -23.307680555555557,
        "longitude": -5.551111111111111
      }
    },
    {
      "SI46": {
        "airport_name": "Fazenda Primavera",
        "city": "PEDREGULHO",
        "latitude": -20.14388888888889,
        "longitude": -5.225555555555555
      }
    },
    {
      "SJFQ": {
        "airport_name": "Fazenda Quatrirmãs",
        "city": "BOTUCATU",
        "latitude": -22.948888888888888,
        "longitude": -5.409722222222221
      }
    },
    {
      "SIZQ": {
        "airport_name": "Fazenda Real",
        "city": "BOTUCATU",
        "latitude": -23.03666666666667,
        "longitude": -5.383888888888889
      }
    },
    {
      "SSPZ": {
        "airport_name": "Fazenda Redenção",
        "city": "PIRACICABA",
        "latitude": -22.716666666666665,
        "longitude": -5.340277777777778
      }
    },
    {
      "SJZW": {
        "airport_name": "Fazenda Regina",
        "city": "ITATINGA",
        "latitude": -23.28666666666667,
        "longitude": -5.411388888888889
      }
    },
    {
      "SJUL": {
        "airport_name": "Fazenda Rio Pardo",
        "city": "IARAS",
        "latitude": -22.87,
        "longitude": -5.5055555555555555
      }
    },
    {
      "SNYO": {
        "airport_name": "Fazenda Rio Preto",
        "city": "GUARARAPES",
        "latitude": -21.379166666666666,
        "longitude": -5.069999999999999
      }
    },
    {
      "SWAL": {
        "airport_name": "Fazenda Santa Albana",
        "city": "ITAPETININGA",
        "latitude": -23.58138888888889,
        "longitude": -5.368055555555555
      }
    },
    {
      "SJF4": {
        "airport_name": "Fazenda Santa Clara",
        "city": "RUBIÁCEA",
        "latitude": -21.305555555555557,
        "longitude": -5.0811111111111105
      }
    },
    {
      "SJRO": {
        "airport_name": "Fazenda Santa Elisa",
        "city": "AURIFLAMA",
        "latitude": -20.530555555555555,
        "longitude": -5.072222222222222
      }
    },
    {
      "SNFN": {
        "airport_name": "Fazenda Santa Fé",
        "city": "JARDINÓPOLIS",
        "latitude": -20.9375,
        "longitude": -5.2555555555555555
      }
    },
    {
      "SDFS": {
        "airport_name": "Fazenda Santa Gertrudes",
        "city": "DOURADO",
        "latitude": -22.092222222222222,
        "longitude": -5.368055555555556
      }
    },
    {
      "SDZH": {
        "airport_name": "Fazenda Santa Helena",
        "city": "PINDAMONHANGABA",
        "latitude": -22.890555555555554,
        "longitude": -4.8925
      }
    },
    {
      "SSJN": {
        "airport_name": "Fazenda Santa Helena",
        "city": "BRAGANÇA PAULISTA",
        "latitude": -22.970555555555553,
        "longitude": -5.067777777777778
      }
    },
    {
      "SWSY": {
        "airport_name": "Fazenda Santa Inês",
        "city": "ESPÍRITO SANTO DO PINHAL",
        "latitude": -22.17666666666667,
        "longitude": -5.073611111111111
      }
    },
    {
      "SDDJ": {
        "airport_name": "Fazenda Santa Maria",
        "city": "MONÇÕES",
        "latitude": -20.849722222222223,
        "longitude": -5.0125
      }
    },
    {
      "SJ9K": {
        "airport_name": "Fazenda Santa Maria",
        "city": "LAVÍNIA",
        "latitude": -21.14638888888889,
        "longitude": -5.170555555555556
      }
    },
    {
      "SIFR": {
        "airport_name": "Fazenda Santa Maria",
        "city": "CRAVINHOS",
        "latitude": -21.285,
        "longitude": -5.247777777777777
      }
    },
    {
      "SI9O": {
        "airport_name": "Fazenda Santa Maria VIII",
        "city": "ARAÇATUBA",
        "latitude": -21.029638888888886,
        "longitude": -5.064722222222222
      }
    },
    {
      "SWTG": {
        "airport_name": "Fazenda Santa Marina",
        "city": "SANTO ANTÔNIO DO ARACANGUÁ",
        "latitude": -20.84722222222222,
        "longitude": -5.086388888888889
      }
    },
    {
      "SDST": {
        "airport_name": "Fazenda Santa Therezinha da Barra",
        "city": "DESCALVADO",
        "latitude": -21.88138888888889,
        "longitude": -5.2508333333333335
      }
    },
    {
      "SDXX": {
        "airport_name": "Fazenda Santa Vitória",
        "city": "QUELUZ",
        "latitude": -22.510277777777777,
        "longitude": -4.745833333333334
      }
    },
    {
      "SIZJ": {
        "airport_name": "Fazenda Santa Zélia",
        "city": "BEBEDOURO",
        "latitude": -20.979444444444443,
        "longitude": -5.384722222222223
      }
    },
    {
      "SDRC": {
        "airport_name": "Fazenda Santana",
        "city": "RANCHARIA",
        "latitude": -22.181944444444447,
        "longitude": -5.0874999999999995
      }
    },
    {
      "SITY": {
        "airport_name": "Fazenda Santapazienza",
        "city": "ITATIBA",
        "latitude": -23.06833333333333,
        "longitude": -5.092499999999999
      }
    },
    {
      "SDAN": {
        "airport_name": "Fazenda Santo Ângelo",
        "city": "BROTAS",
        "latitude": -22.245555555555555,
        "longitude": -5.364444444444444
      }
    },
    {
      "SDKR": {
        "airport_name": "Fazenda Santo Antônio",
        "city": "ARARAS",
        "latitude": -22.379444444444445,
        "longitude": -5.2091666666666665
      }
    },
    {
      "SDAS": {
        "airport_name": "Fazenda Santo Antônio",
        "city": "MIRANDÓPOLIS",
        "latitude": -21.275277777777777,
        "longitude": -5.202777777777778
      }
    },
    {
      "SWPJ": {
        "airport_name": "Fazenda Santo Antônio",
        "city": "MOGI MIRIM",
        "latitude": -22.464444444444442,
        "longitude": -5.095555555555555
      }
    },
    {
      "SIFO": {
        "airport_name": "Fazenda Santo Antônio Oriçanga",
        "city": "ESTIVA GERBI",
        "latitude": -22.231944444444444,
        "longitude": -5.105833333333333
      }
    },
    {
      "SNZG": {
        "airport_name": "Fazenda São Benedito",
        "city": "CAPÃO BONITO",
        "latitude": -23.861111111111114,
        "longitude": -5.3613888888888885
      }
    },
    {
      "SJUQ": {
        "airport_name": "Fazenda São Clemente",
        "city": "SÃO JOSÉ DOS CAMPOS",
        "latitude": -23.119722222222222,
        "longitude": -4.919444444444445
      }
    },
    {
      "SNQP": {
        "airport_name": "Fazenda São Francisco",
        "city": "MAGDA",
        "latitude": -20.56888888888889,
        "longitude": -5.025833333333333
      }
    },
    {
      "SWFS": {
        "airport_name": "Fazenda São Francisco",
        "city": "MOGI MIRIM",
        "latitude": -22.38277777777778,
        "longitude": -5.1675
      }
    },
    {
      "SDNG": {
        "airport_name": "Fazenda São João",
        "city": "JAÚ",
        "latitude": -22.418333333333333,
        "longitude": -5.3999999999999995
      }
    },
    {
      "SING": {
        "airport_name": "Fazenda São João",
        "city": "NOVA GRANADA",
        "latitude": -20.55666666666667,
        "longitude": -5.536388888888889
      }
    },
    {
      "SSZT": {
        "airport_name": "Fazenda São João",
        "city": "ÁGUAS DE SANTA BÁRBARA",
        "latitude": -22.789444444444445,
        "longitude": -5.533888888888889
      }
    },
    {
      "SDKQ": {
        "airport_name": "Fazenda São João",
        "city": "GUARACI",
        "latitude": -20.190277777777776,
        "longitude": -5.508333333333334
      }
    },
    {
      "SDJQ": {
        "airport_name": "Fazenda São Joaquim O.B.",
        "city": "PEREIRA BARRETO",
        "latitude": -20.828333333333333,
        "longitude": -5.167222222222223
      }
    },
    {
      "SJBL": {
        "airport_name": "Fazenda São José",
        "city": "RIO CLARO",
        "latitude": -22.330555555555556,
        "longitude": -5.225555555555556
      }
    },
    {
      "SDTX": {
        "airport_name": "Fazenda São José",
        "city": "ILHA SOLTEIRA",
        "latitude": -20.541944444444447,
        "longitude": -5.203333333333333
      }
    },
    {
      "SDYB": {
        "airport_name": "Fazenda São José do Bom Retiro",
        "city": "ITAPETININGA",
        "latitude": -23.784444444444446,
        "longitude": -5.366944444444445
      }
    },
    {
      "SDOB": {
        "airport_name": "Fazenda São José O.B.",
        "city": "TAPIRATIBA",
        "latitude": -21.42527777777778,
        "longitude": -5.0808333333333335
      }
    },
    {
      "SDJN": {
        "airport_name": "Fazenda São Luiz",
        "city": "JARDINÓPOLIS",
        "latitude": -21.096666666666664,
        "longitude": -5.2444444444444445
      }
    },
    {
      "SNDS": {
        "airport_name": "Fazenda São Martinho",
        "city": "ILHA SOLTEIRA",
        "latitude": -20.357222222222223,
        "longitude": -5.197777777777778
      }
    },
    {
      "SIKG": {
        "airport_name": "Fazenda São Miguel",
        "city": "RIBEIRÃO BRANCO",
        "latitude": -24.198333333333334,
        "longitude": -5.4063888888888885
      }
    },
    {
      "SDEB": {
        "airport_name": "Fazenda São Paulo dos Palmares",
        "city": "TIMBURI",
        "latitude": -23.269444444444442,
        "longitude": -5.5569444444444445
      }
    },
    {
      "SJAS": {
        "airport_name": "Fazenda São Roque",
        "city": "REGINÓPOLIS",
        "latitude": -21.660277777777775,
        "longitude": -5.526388888888889
      }
    },
    {
      "SJ6J": {
        "airport_name": "Fazenda Sobrado",
        "city": "SÃO MANUEL",
        "latitude": -22.658055555555553,
        "longitude": -5.386111111111112
      }
    },
    {
      "SSHQ": {
        "airport_name": "Fazenda Sossego",
        "city": "ROSANA",
        "latitude": -22.351666666666667,
        "longitude": -5.400555555555556
      }
    },
    {
      "SN68": {
        "airport_name": "Fazenda Suissa",
        "city": "GUAIMBÊ",
        "latitude": -21.90722222222222,
        "longitude": -5.586666666666666
      }
    },
    {
      "SJC2": {
        "airport_name": "Fazenda Tabaroa",
        "city": "ÁGUAS DE SANTA BÁRBARA",
        "latitude": -22.798055555555557,
        "longitude": -5.533333333333333
      }
    },
    {
      "SDDI": {
        "airport_name": "Fazenda Tamara",
        "city": "SALMOURÃO",
        "latitude": -21.591388888888886,
        "longitude": -5.093055555555555
      }
    },
    {
      "SDTE": {
        "airport_name": "Fazenda Tapijara",
        "city": "ARANDU",
        "latitude": -23.220555555555553,
        "longitude": -5.5119444444444445
      }
    },
    {
      "SJ2Q": {
        "airport_name": "Fazenda Terra Viva",
        "city": "PORTO FELIZ",
        "latitude": -23.360000000000003,
        "longitude": -5.2225
      }
    },
    {
      "SSVY": {
        "airport_name": "Fazenda Três Barras",
        "city": "PITANGUEIRAS",
        "latitude": -20.93777777777778,
        "longitude": -5.350555555555555
      }
    },
    {
      "SILT": {
        "airport_name": "Fazenda Três Irmãos",
        "city": "SANTA FÉ DO SUL",
        "latitude": -20.227777777777778,
        "longitude": -5.105555555555555
      }
    },
    {
      "SNOW": {
        "airport_name": "Fazenda Turmalina",
        "city": "RANCHARIA",
        "latitude": -21.98222222222222,
        "longitude": -5.106111111111111
      }
    },
    {
      "SIXA": {
        "airport_name": "Fazenda União Suzanápolis",
        "city": "SUZANÁPOLIS",
        "latitude": -20.531666666666666,
        "longitude": -5.181388888888889
      }
    },
    {
      "SDVH": {
        "airport_name": "Fazenda Vale Eldorado - Dr José de Aguiar Leme",
        "city": "BRAGANÇA PAULISTA",
        "latitude": -23.005277777777778,
        "longitude": -5.0725
      }
    },
    {
      "SDVS": {
        "airport_name": "Fazenda Vassoural",
        "city": "PONTAL",
        "latitude": -21.074166666666667,
        "longitude": -5.3374999999999995
      }
    },
    {
      "SICN": {
        "airport_name": "Fazenda Vista Bonita",
        "city": "SANDOVALINA",
        "latitude": -22.50638888888889,
        "longitude": -5.256944444444445
      }
    },
    {
      "SIEH": {
        "airport_name": "Fazenda Vô Chico",
        "city": "JALES",
        "latitude": -20.31222222222222,
        "longitude": -5.067777777777778
      }
    },
    {
      "SWFB": {
        "airport_name": "Fazendas Bergamini",
        "city": "RIVERSUL",
        "latitude": -23.787222222222223,
        "longitude": -5.547777777777777
      }
    },
    {
      "SJFC": {
        "airport_name": "Federação do Comércio do Estado de São Paulo",
        "city": "SÃO PAULO",
        "latitude": -23.558333333333334,
        "longitude": -5.075
      }
    },
    {
      "SDFV": {
        "airport_name": "Federação Paulista de Futebol",
        "city": "SÃO PAULO",
        "latitude": -23.522222222222222,
        "longitude": -5.066666666666666
      }
    },
    {
      "SJHI": {
        "airport_name": "Flow Water",
        "city": "CAMPOS DO JORDÃO",
        "latitude": -22.75,
        "longitude": -4.887499999999999
      }
    },
    {
      "SNRL": {
        "airport_name": "Folhamatic",
        "city": "AMERICANA",
        "latitude": -22.759166666666665,
        "longitude": -5.2091666666666665
      }
    },
    {
      "SDKG": {
        "airport_name": "Francisco Mellão",
        "city": "SÃO PAULO",
        "latitude": -23.59361111111111,
        "longitude": -5.069722222222222
      }
    },
    {
      "SBML": {
        "airport_name": "FRANK MILOYE MILENKOVICH",
        "city": "MARÍLIA",
        "latitude": -22.196944444444444,
        "longitude": -5.598055555555555,
        "airspace_class": "CLASS D"
      }
    },
    {
      "SSQX": {
        "airport_name": "Frei Caneca Shopping",
        "city": "SÃO PAULO",
        "latitude": -23.55388888888889,
        "longitude": -5.075277777777778
      }
    },
    {
      "SWTF": {
        "airport_name": "Friboi",
        "city": "SÃO PAULO",
        "latitude": -23.51361111111111,
        "longitude": -5.076388888888888
      }
    },
    {
      "SJFF": {
        "airport_name": "Frigo Estrela",
        "city": "ESTRELA DOESTE",
        "latitude": -20.295555555555556,
        "longitude": -5.045555555555556
      }
    },
    {
      "SDFB": {
        "airport_name": "Fundação Bradesco",
        "city": "CAMPINAS",
        "latitude": -22.964444444444442,
        "longitude": -5.1786111111111115
      }
    },
    {
      "SNGC": {
        "airport_name": "Galleria Corporate",
        "city": "CAMPINAS",
        "latitude": -22.866388888888892,
        "longitude": -5.169722222222222
      }
    },
    {
      "SNTN": {
        "airport_name": "Gama",
        "city": "BARUERI",
        "latitude": -23.484722222222224,
        "longitude": -5.086666666666666
      }
    },
    {
      "SN49": {
        "airport_name": "Gama Terra",
        "city": "ITUVERAVA",
        "latitude": -20.34611111111111,
        "longitude": -5.253333333333333
      }
    },